#Network | Station | Latitude | Longitude | Elevation | Sitename | StartTime | EndTime

#DATACENTER=IRISDMC,http://ds.iris.edu
AC|BCI|42.3666|20.067499|500.0|Bajram Curri, Albania|2009-12-22T00:00:00|2599-12-31T23:59:59
AC|KBN|40.6236|20.787399|800.0|Korce, Albania|2009-12-22T00:00:00|2599-12-31T23:59:59
AC|LSK|40.149899|20.5987|960.0|LSK|2010-01-01T00:00:00|2599-12-31T23:59:59
AC|PHP|41.6847|20.4408|670.0|Peshkopi, Albania|2009-12-22T00:00:00|2599-12-31T23:59:59
AC|PUK|42.042599|19.892599|900.0|Puke, Albania|2009-12-22T00:00:00|2599-12-31T23:59:59
AC|SRN|39.880001|20.0005|20.0|Sarande, Albania|2010-01-01T00:00:00|2599-12-31T23:59:59
AC|VLO|40.468601|19.495501|80.0|Vlore, Albania|2009-12-22T00:00:00|2599-12-31T23:59:59
AE|113A|32.768299|-113.766701|118.0|Mohawk Valley, Roll, AZ, USA|2009-01-28T00:00:00|2599-12-31T23:59:59
AE|319A|31.3757|-109.280899|1187.0|Douglas, AZ, USA|2011-12-01T00:00:00|2599-12-31T23:59:59
AE|BABIT|35.745548|-112.422218|1693.6|Valle/Cataract Creek|2017-10-27T00:00:00|2599-12-31T23:59:59
AE|BARN|35.27668|-111.73571|2254.0|Flagstaff|2017-10-27T00:00:00|2599-12-31T23:59:59
AE|HANNA|33.63636|-109.32029|2796.0|Alpine/Hannagan Meadow|2017-10-27T00:00:00|2599-12-31T23:59:59
AE|PRCT|35.055786|-112.710289|1410.0|Prescott|2017-10-27T00:00:00|2599-12-31T23:59:59
AE|TONTO|33.649147|-111.007675|660.6|Roosevelt/Tonto Basin|2017-10-27T00:00:00|2599-12-31T23:59:59
AE|U15A|36.428001|-112.291496|2489.0|North Rim, AZ, USA|2011-12-01T00:00:00|2599-12-31T23:59:59
AE|W13A|35.097382|-113.894318|2113.0|Hualapai Mountain Park, Kingman, AZ, USA|2011-12-01T00:00:00|2599-12-31T23:59:59
AE|X16A|34.417801|-111.441101|1759.4|Lo Mia Camp, Pine, AZ, USA|2009-02-04T00:00:00|2599-12-31T23:59:59
AE|X18A|34.529301|-109.950104|1751.0|Snowflake, AZ, USA|2011-12-01T00:00:00|2599-12-31T23:59:59
AE|Y14A|33.938301|-113.004799|730.7|Wickenburg, AZ, USA|2011-12-01T00:00:00|2599-12-31T23:59:59
AF|ALKP|-29.941839|22.24667|1065.0|Alkantpan, Northen Cape, South Africa|2018-09-07T00:00:00|2599-12-31T23:59:59
AF|GRHM|-33.276688|26.376724|610.0|Grahamstown, Eastern Cape, South Africa|2016-06-20T00:00:00|2599-12-31T23:59:59
AF|WIN|-22.5667|17.1|1728.0|Windhoek, Namibia|2004-09-01T00:00:00|2599-12-31T23:59:59
AG|CCAR|33.917|-91.772|72.0|Cane Creek, AR|2010-02-24T00:00:00|2599-12-31T23:59:59
AG|FCAR|35.89|-92.124|190.0|Ozark Folk Center,AR|2010-02-16T00:00:00|2599-12-31T23:59:59
AG|HHAR|36.282|-93.94|421.0|Hobbs,AR|2010-03-03T00:00:00|2599-12-31T23:59:59
AG|LCAR|36.07|-91.154|103.0|Lake Charles,AR|2010-02-10T00:00:00|2599-12-31T23:59:59
AG|U40A|36.3563|-92.8535|374.0|Yellville, AR|2016-06-21T17:00:00|2599-12-31T23:59:59
AG|WHAR|35.29|-92.289|184.0|Woolly Hollow State Park,AR|2010-02-15T00:00:00|2599-12-31T23:59:59
AG|WLAR|33.688|-93.112|77.0|White Oak Lake,AR|2010-02-23T00:00:00|2599-12-31T23:59:59
AG|X40A|34.4873|-92.8342|158.0|Basin Creek Farm, Marlvern, AR|2016-06-22T17:00:00|2599-12-31T23:59:59
AG|Z41A|33.2577|-92.803|62.0|Richland Creek Farm, El Dorado, AR|2016-08-10T17:00:00|2599-12-31T23:59:59
AI|BELA|-77.875|-34.6269|262.0|BELGRANO II Permanent Argentinean Antarctic Base|2009-01-16T00:00:00|2599-12-31T23:59:59
AI|ESPZ|-63.398102|-56.996399|31.0|ESPERANZA Permanent Argentinean Antarctic Base|2005-01-26T00:00:00|2599-12-31T23:59:59
AI|JUBA|-62.237301|-58.662701|16.0|Carlini Permanent Argentinean Antarctic Base|2002-03-05T00:00:00|2599-12-31T23:59:59
AI|ORCD|-60.738098|-44.736099|20.0|Orcadas Permanent Argentinean Antarctic Base|1997-03-01T00:00:00|2599-12-31T23:59:59
AI|SMAI|-68.130203|-67.105904|9.0|San Martin Permanent Argentinean Antarctic Base|2007-02-07T00:00:00|2599-12-31T23:59:59
AK|GREN|63.9738|-145.6949|414.0|Z|2020-09-22T00:00:00|2599-12-31T23:59:59
AK|GRES|63.9451|-145.7281|445.0|Z|2020-09-29T00:00:00|2599-12-31T23:59:59
AK|WAT1|62.829498|-148.550903|722.0|Susitna Watana 1, AK, USA|2012-08-12T00:00:00|2599-12-31T23:59:59
AU|ARPS|-36.769901|141.838303|250.0|Mt Arapiles, VIC|2006-01-23T00:00:00|2599-12-31T23:59:59
AU|AXCOZ|-22.9608|145.251099|226.0|Aramac airstrip, QLD|2018-11-30T00:00:00|2599-12-31T23:59:59
AU|BCON|-30.33585|117.7649|386.0|Beacon, Western Australia|2020-05-28T00:00:00|2599-12-31T23:59:59
AU|BN2S|-27.3293|153.047699|8.0|Brisbande 2 Soft JUMP, Queensland|2009-01-01T00:00:00|2599-12-31T23:59:59
AU|BOXOZ|-16.0546|136.302094|44.0|Borrolooa, NT|2018-07-19T00:00:00|2599-12-31T23:59:59
AU|BRAT|-37.548901|143.932999|503.0|Ballarat JUMP, Victoria|2013-03-22T00:00:00|2599-12-31T23:59:59
AU|BW1H|-20.004499|148.236099|63.0|Bowen Hard JUMP, Queensland|2012-08-01T00:00:00|2599-12-31T23:59:59
AU|BW2S|-19.9984|148.223206|7.0|BOWEN SOFT JUMP QUEENSLAND|2012-08-02T00:00:00|2599-12-31T23:59:59
AU|CN1H|-16.910999|145.710602|149.0|Cairns 1 Hard JUMP, Queensland|2012-01-01T00:00:00|2599-12-31T23:59:59
AU|CN2S|-17.0215|145.723801|56.0|Cairns 2 Soft JUMP, Queensland|2012-01-01T00:00:00|2599-12-31T23:59:59
AU|CNB|-35.314999|149.363297|853.0|Canberra, Kowen Forest|2020-06-24T01:00:00|2599-12-31T23:59:59
AU|CORO|-41.452202|147.145004|0.0|Coronation Park JUMP, Tasmania|2009-11-20T00:00:00|2599-12-31T23:59:59
AU|CTA|-20.0876|146.25|426.0|Charters Towers, Queensland|1994-10-20T00:00:00|2599-12-31T23:59:59
AU|CVQOZ|-24.4457|114.078003|37.0|Cooralya Station, Carnarvon, WA|2019-03-13T00:00:00|2599-12-31T23:59:59
AU|DLN|-34.723301|149.178894|565.0|Dalton JUMP, New South Wales|2013-02-01T00:00:00|2599-12-31T23:59:59
AU|DNDOZ|-32.460899|123.867996|153.0|Balladonia, WA|2019-02-28T00:00:00|2599-12-31T23:59:59
AU|DPH|-12.4667|130.8423|45.0|Darwin Parliament House JUMP, Northern Territory|2009-01-01T00:00:00|2599-12-31T23:59:59
AU|DRS|-12.4313|130.899307|44.0|Darwin Rock Store JUMP, Northern Territory|2009-01-01T00:00:00|2599-12-31T23:59:59
AU|FORT|-30.779|128.059|165.0|Forrest, WA|1994-01-01T00:00:00|2599-12-31T23:59:59
AU|GC2F|-27.912201|153.395798|12.0|Gold Coast 2 Fill JUMP, Queensland|2009-01-01T00:00:00|2599-12-31T23:59:59
AU|GEXS|-38.200802|144.289993|10.0|Deakin UNI JUMP, GEELONG Victoria|2013-03-26T00:00:00|2599-12-31T23:59:59
AU|GIRL|-22.643|114.234001|111.0|Giralia, WA|1995-09-04T00:00:00|2599-12-31T23:59:59
AU|GLAD|-40.982498|148.009995|0.0|Gladstone JUMP, Tasmania|2009-11-20T00:00:00|2599-12-31T23:59:59
AU|GVL|-37.621399|144.899002|185.0|Greenvale Resevoir, JUMP Victoria|2013-03-05T00:00:00|2599-12-31T23:59:59
AU|HTT|-33.4306|138.9217|708.0|Hallett, South Australia|2009-07-01T00:00:00|2599-12-31T23:59:59
AU|INKA|-27.740999|140.745605|112.0|Innamincka, South Australia|2013-06-21T00:00:00|2599-12-31T23:59:59
AU|KDU|-12.6869|132.472702|46.0|Kakadu, NT|2008-11-27T00:00:00|2599-12-31T23:59:59
AU|KELC|-35.979099|136.907806|60.0|Kangaroo Island|2018-06-11T00:00:00|2599-12-31T23:59:59
AU|KMBL|-31.3669|121.8821|370.0|Kambalda, WA|2000-11-27T00:00:00|2599-12-31T23:59:59
AU|KNRA|-15.6769|128.762802|126.0|Kunnunarra, WA|2008-08-21T00:00:00|2599-12-31T23:59:59
AU|KORDA|-30.87687|117.50301|306.0|KORDA- Koorda, Western Australia|2020-05-28T00:00:00|2599-12-31T23:59:59
AU|LCRK|-30.447201|138.216202|207.0|Leigh Creek,South Australia|2013-06-16T00:00:00|2599-12-31T23:59:59
AU|LHI|-31.52|159.061295|73.7|Lord Howe Island|2007-07-08T00:00:00|2599-12-31T23:59:59
AU|MABG|-34.0721|150.7601|132.0|Mount Annan Botanical Gardens|2016-08-17T00:00:00|2599-12-31T23:59:59
AU|MANU|-2.0432|147.366196|141.5|Manus Island, Papua New Guinea|2009-05-26T00:00:00|2599-12-31T23:59:59
AU|MCQ|-54.4986|158.9561|14.0|Macquarie Island|2004-06-28T00:00:00|2599-12-31T23:59:59
AU|MGBR|-37.726299|140.5728|186.0|Mount Gambier SA|2018-06-12T00:00:00|2599-12-31T23:59:59
AU|MILA|-37.0547|149.155|785.0|Mila, NSW|2006-04-11T00:00:00|2599-12-31T23:59:59
AU|MTN|-12.8436|131.132706|137.4|Manton Dam, Darwin NT|2006-08-20T00:00:00|2599-12-31T23:59:59
AU|MTSU|-18.148199|144.319504|460.0|Mount Surprise, QLD|2002-11-06T00:00:00|2599-12-31T23:59:59
AU|MUKOZ|-26.7575|114.609398|130.0|Meadow Station, WA|2019-03-13T00:00:00|2599-12-31T23:59:59
AU|MULG|-30.281799|134.058502|254.7|Mulgathing, South Australia|2013-05-28T00:00:00|2599-12-31T23:59:59
AU|NAPP|-33.1828|138.147797|181.0|Napperby JUMP, South Australia|2009-01-01T00:00:00|2599-12-31T23:59:59
AU|NFK|-29.043301|167.938904|203.0|Norfolk Island|2008-05-20T00:00:00|2599-12-31T23:59:59
AU|NTLH|-32.8983|151.703003|64.0|Newcastle Hard Rock JUMP, New South Wales|2012-09-25T00:00:00|2599-12-31T23:59:59
AU|OKDL|-34.0707|150.4805|508.0|Oakdale, Sydney, NSW|2017-02-17T00:00:00|2599-12-31T23:59:59
AU|ONGER|-33.86366|118.39563|340.0|Ongerup, WA|2020-06-25T03:42:35|2599-12-31T23:59:59
AU|OOD|-27.794399|135.688004|162.2|Oodnadatta, South Australia|2013-05-24T00:00:00|2599-12-31T23:59:59
AU|PHB|-35.306999|149.1241|609.0|Parliment House Basement - Canberra|2015-12-16T00:00:00|2599-12-31T23:59:59
AU|QIS|-20.557699|139.605194|450.0|Mount Isa, Qld|2005-02-06T00:00:00|2599-12-31T23:59:59
AU|QLP|-26.5837|144.235001|210.0|Quilpie, QLD|2003-11-13T00:00:00|2599-12-31T23:59:59
AU|RABL|-4.1912|152.163696|277.0|Rabaul, Papua New Guinea|2009-04-26T00:00:00|2599-12-31T23:59:59
AU|RIV|-33.829399|151.158295|25.0|St Ignatius College, Riverview, Sydney|2004-11-09T00:00:00|2599-12-31T23:59:59
AU|RK1H|-23.3876|150.493896|66.0|Rockhampton 1 Hard Rock JUMP, QLD|2009-01-13T00:00:00|2599-12-31T23:59:59
AU|RK2S|-23.3102|150.521606|36.0|Rockhampton 2 Soft Rock JUMP, QLD|2008-12-10T00:00:00|2599-12-31T23:59:59
AU|RMQ|-26.489|148.755005|360.0|Roma, QLD|2004-11-22T21:00:00|2599-12-31T23:59:59
AU|SDAN|-34.507301|139.337997|586.0|Sedan SA|2018-06-11T00:00:00|2599-12-31T23:59:59
AU|SYDH|-33.7619|150.7417|55.0|Sydney Hard JUMP, New South Wales|2010-09-10T00:00:00|2599-12-31T23:59:59
AU|SYDS|-33.9297|151.2243|27.0|Sydney Soft JUMP, NSW|2010-04-30T00:00:00|2599-12-31T23:59:59
AU|TV1H|-19.2614|146.795395|65.0|Townsville 1 Hard JUMP, Queensland|2009-01-01T00:00:00|2599-12-31T23:59:59
AU|TV2S|-19.2904|146.788696|25.0|Townsville 2 Soft JUMP, Queensland|2012-08-01T00:00:00|2599-12-31T23:59:59
AU|TW1H|-27.544201|151.972|730.0|Toowoomba 1 Hard JUMP, Queensland|2009-01-01T00:00:00|2599-12-31T23:59:59
AU|WATNG|-30.7323|118.19845|360.0|Wattoning, WA|2020-06-12T00:00:00|2599-12-31T23:59:59
AU|WOLH|-34.407|150.874|91.0|Woolongong Hard JUMP, NSW|2011-03-23T00:00:00|2599-12-31T23:59:59
AU|WRKA|-25.0375|128.296097|622.0|Warrakurna, Western Australia|2009-04-26T00:00:00|2599-12-31T23:59:59
AU|WTPK|-34.2217|150.6389|199.0|Wilton Park, Sydney, NSW|2016-07-07T00:00:00|2599-12-31T23:59:59
AU|YAPP|-31.866301|138.311905|267.0|Yappala Station, SA|2018-06-23T00:00:00|2599-12-31T23:59:59
AU|YARR|-33.6174|150.6877|19.0|Yarramundi, Sydney, NSW|2016-11-29T00:00:00|2599-12-31T23:59:59
AU|YNG|-34.298|148.3963|460.0|Young, NSW|2004-04-16T00:00:00|2599-12-31T23:59:59
AY|HINH|19.1637|-72.015602|289.0|Hinche, NA|2014-03-24T00:00:00|2599-12-31T23:59:59
AZ|BZN|33.491501|-116.667|1301.0|Buzz Northerns Place, Anza, CA, USA|1983-01-20T00:00:00|2599-12-31T23:59:59
AZ|CRY|33.565399|-116.737297|1128.0|Cary Ranch, Anza, CA, USA|1982-10-01T00:00:00|2599-12-31T23:59:59
AZ|FRD|33.494701|-116.602203|1164.0|Ford Ranch, Anza, CA, USA|1982-10-01T00:00:00|2599-12-31T23:59:59
AZ|KNW|33.7141|-116.7119|1507.0|Keenwild Fire Station, Mountain Center, CA, USA|1982-10-01T00:00:00|2599-12-31T23:59:59
AZ|LVA2|33.351601|-116.561501|1435.0|Lost Valley Scout Camp, CA, USA|1993-04-18T00:00:00|2599-12-31T23:59:59
AZ|PFO|33.611698|-116.459396|1259.0|Pinyon Flats Observatory, CA, USA|1982-10-01T00:00:00|2599-12-31T23:59:59
AZ|RDM|33.630001|-116.847801|1365.0|Red Mountain, Riverside Co, CA, USA|1982-10-01T00:00:00|2599-12-31T23:59:59
AZ|RRSP|33.651501|-116.739403|1610.0|Rouse Ridge, CA, USA|2013-01-24T00:00:00|2599-12-31T23:59:59
AZ|SIO5|32.840698|-117.249702|217.0|Mt. Soledad, La Jolla, CA|2017-05-23T00:00:00|2599-12-31T23:59:59
AZ|SMER|33.457699|-117.170799|355.7|Santa Margarita Ecological Reserve, CA, USA|2002-02-09T00:00:00|2599-12-31T23:59:59
AZ|SND|33.551899|-116.6129|1358.0|Jim Saunders Place, Anza, CA, USA|1982-10-01T00:00:00|2599-12-31T23:59:59
AZ|TRO|33.5234|-116.4257|2628.0|Toro Peak, Riverside Co, CA, USA|1982-10-01T00:00:00|2599-12-31T23:59:59
BC|CBX|32.3131|-116.6636|1250.0|CERRO BOLA MEX|2002-02-22T18:00:00|2599-12-31T23:59:59
BC|CCX|31.867887|-116.664459|36.6|CICESE CCX|2011-06-16T00:00:00|2599-12-31T23:59:59
BC|CPX|32.4195|-115.305|192.0|CERRO PRIETO|2009-10-30T20:00:00|2599-12-31T23:59:59
BC|GUVIX|32.302898|-115.075996|10.0|Guadalupe Victoria|2014-06-13T00:00:00|2599-12-31T23:59:59
BC|PIX|31.562901|-113.4599|77.8|Pinacate|2011-07-15T00:00:00|2599-12-31T23:59:59
BC|RMX|32.5535|-116.0288|1278.0|Rumorosa|2011-10-11T00:00:00|2599-12-31T23:59:59
BC|SFX|31.0376|-114.851|39.0|San Felipe|2012-07-04T00:00:00|2599-12-31T23:59:59
BC|SJX|32.004799|-115.947998|1616.0|Sierra de Juarez|2012-03-20T00:00:00|2599-12-31T23:59:59
BC|SLRCX|32.457901|-114.704903|47.0|San Luis Rio Colorado|2015-06-05T23:46:32|2599-12-31T23:59:59
BC|TJX|32.51017|-117.054298|210.0|Tijuana|2011-08-08T00:00:00|2599-12-31T23:59:59
BC|TKX|32.5687|-116.6075|541.0|Tecate|2011-10-11T00:00:00|2599-12-31T23:59:59
BC|UABX|32.6316|-115.4447|44.3|UABC Campus Mexicali|2011-06-30T00:00:00|2599-12-31T23:59:59
BC|VTX|31.391399|-115.783997|746.0|Valle de la Trinidad|2011-11-09T00:00:00|2599-12-31T23:59:59
BE|MEM|50.6092|6.0067|250.0|Membach, Belgium|2006-01-01T00:00:00|2599-12-31T23:59:59
BE|RCHB|50.155156|5.226787|225.0|Rochefort, Belgium|2008-06-03T00:00:00|2599-12-31T23:59:59
BE|UCC|50.797241|4.36038|100.0|Uccle, Brussels, Belgium|2018-10-29T09:00:00|2599-12-31T23:59:59
BK|CMB|38.03455|-120.38651|697.0|Columbia College, Columbia, CA, USA|1996-09-25T19:19:00|2599-12-31T23:59:59
BK|MCCM|38.14478|-122.88018|-7.7|Marconi Conference Center, Marshall, CA, USA|2006-02-03T18:30:00|2599-12-31T23:59:59
BK|SAO|36.76403|-121.44722|317.2|San Andreas Geophysical Obs., Hollister, CA, USA|1988-01-28T00:00:00|2599-12-31T23:59:59
BL|PMNB|-18.540001|-46.439999|950.0|Patos de Minas, MG|2010-10-22T16:00:00|2599-12-31T23:59:59
BL|VABB|-23.0021|-46.965698|866.0|Valinhos, SP|2010-04-05T00:00:00|2599-12-31T23:59:59
C0|CHIL|40.446466|-104.638217|1423.7|CSU-CHILL Radar|2020-02-21T00:00:00|2599-12-31T23:59:59
C0|HAYD|40.52806|-107.26551|2202.3|Hayden Colorado|2018-06-01T00:00:00|2599-12-31T23:59:59
C0|LAMA|38.273002|-102.645293|1182.4|Lamar Colorado|2018-11-07T00:00:00|2599-12-31T23:59:59
C0|MCSU|40.568455|-105.587774|2756.1|Colorado State University - Mountain Campus - CO USA|2019-07-07T00:00:00|2599-12-31T23:59:59
C0|Q24A|38.9641|-105.1492|2772.3|Divide, CO|2019-02-26T00:00:00|2599-12-31T23:59:59
C0|S22A|37.74612|-106.82926|2623.7|4UR Ranch, Creede, CO|2019-03-07T00:00:00|2599-12-31T23:59:59
C0|T25A|37.1388|-104.41087|2012.9|Trinidad, CO|2019-03-07T00:00:00|2599-12-31T23:59:59
C1|AC01|-26.14788|-70.59866|346.0|Pan de Azucar|2012-08-13T00:00:00|2599-12-31T23:59:59
C1|AC02|-26.835517|-69.129067|3980.0|Maricunga|2014-02-04T00:00:00|2599-12-31T23:59:59
C1|AC04|-28.204575|-71.073928|228.0|Llanos de Challe|2014-02-08T00:00:00|2599-12-31T23:59:59
C1|AC05|-28.836377|-70.273777|1227.0|El Transito|2014-02-09T00:00:00|2599-12-31T23:59:59
C1|AC06|-27.357117|-70.354689|380.0|Copiapo, Mina Casimiro Domeyko|2015-08-28T13:49:46|2599-12-31T23:59:59
C1|AF01|-22.95196|-68.17876|2442.9|SAN PEDRO DE ATACAMA|2015-06-05T00:00:00|2599-12-31T23:59:59
C1|AP01|-18.37084|-70.34197|31.0|Chacalluta|2013-11-16T00:00:00|2599-12-31T23:59:59
C1|AP02|-18.853959|-69.143334|4334.0|Surire|2017-04-27T05:38:00|2599-12-31T23:59:59
C1|AY01|-44.42092|-72.64803|9.0|PUYUHUAPI|2015-05-09T00:00:00|2599-12-31T23:59:59
C1|AY02|-46.48392|-73.19474|79.0|VALLE EXPLORADORES|2015-04-07T00:00:00|2599-12-31T23:59:59
C1|AY03|-47.253042|-72.590769|206.5|Cochrane|2017-01-10T18:01:29|2599-12-31T23:59:59
C1|AY04|-46.582606|-71.6909|308.4|Chile Chico|2019-04-24T13:03:09|2599-12-31T23:59:59
C1|AY05|-45.150958|-73.511667|20.5|Puerto Aguirre|2019-01-16T20:06:58|2599-12-31T23:59:59
C1|BI02|-36.6634|-71.2731|913.0|San Fabian de Alico|2014-01-10T00:00:00|2599-12-31T23:59:59
C1|BI04|-38.41161|-73.88622|41.0|Isla Mocha|2016-10-28T00:00:00|2599-12-31T23:59:59
C1|BI05|-36.74784|-73.19051|52.0|Faro Punta Hualpen|2015-09-13T00:00:00|2599-12-31T23:59:59
C1|BI06|-36.131306|-72.788472|23.0|Cobquecura|2018-02-16T14:48:54|2599-12-31T23:59:59
C1|BO01|-34.3917|-71.0848|262.5|Tunca|2014-02-06T00:00:00|2599-12-31T23:59:59
C1|BO02|-34.7924|-70.7814|886.0|Daracena|2014-01-16T00:00:00|2599-12-31T23:59:59
C1|BO03|-34.49605|-71.9612|128.0|Pichilemu|2014-10-29T00:00:00|2599-12-31T23:59:59
C1|BO04|-33.98884|-70.60902|625.0|La Punta|2015-09-25T00:00:00|2599-12-31T23:59:59
C1|CO01|-29.9773|-70.0939|2157.0|Juntas del Toro|2014-02-11T00:00:00|2599-12-31T23:59:59
C1|CO02|-31.2037|-71.0003|1190.0|Combarbala|2013-06-19T00:00:00|2599-12-31T23:59:59
C1|CO03|-30.8389|-70.6891|1003.0|El Pedregal|2014-02-11T00:00:00|2599-12-31T23:59:59
C1|CO04|-32.0433|-70.9747|2401.0|Los Peladeros|2014-02-08T00:00:00|2599-12-31T23:59:59
C1|CO05|-29.91864|-71.23841|101.0|LA SERENA|2015-04-02T00:00:00|2599-12-31T23:59:59
C1|CO06|-30.673813|-71.634987|246.6|Fray Jorge, IV Region Coquimbo|2015-05-11T00:00:00|2599-12-31T23:59:59
C1|CO10|-29.24057|-71.46087|35.0|PUNTA DE CHOROS|2017-10-16T18:19:31|2599-12-31T23:59:59
C1|IN44|-62.478742|-59.664009|55.0|Base Arturo Prat|2021-02-23T13:11:29|2599-12-31T23:59:59
C1|LL01|-42.3787|-72.4125|62.0|San Ignacio de Huinay|2013-10-05T00:00:00|2599-12-31T23:59:59
C1|LL02|-43.19055|-71.84838|368.0|Futaleufu|2014-09-12T00:00:00|2599-12-31T23:59:59
C1|LL04|-40.90972|-72.40817|247.0|Puerto Octay|2015-02-17T00:00:00|2599-12-31T23:59:59
C1|LL05|-41.405341|-73.47445|208.0|Los Muermos|2015-02-04T00:00:00|2599-12-31T23:59:59
C1|LL07|-42.83235|-73.47785|53.5|Hotel Espejo de Luna|2015-02-03T00:00:00|2599-12-31T23:59:59
C1|LR03|-39.632184|-72.345701|253.2|Panguipulli|2015-08-29T00:00:00|2599-12-31T23:59:59
C1|LR04|-39.88019|-73.425822|93.6|Corral|2015-09-13T00:00:00|2599-12-31T23:59:59
C1|LR05|-40.229975|-72.0044|203.5|Currine|2016-01-14T00:00:00|2599-12-31T23:59:59
C1|MG02|-52.7808|-69.2242|82.0|Cerro Sombrero|2014-12-20T00:00:00|2599-12-31T23:59:59
C1|MG03|-53.84798|-70.46275|83.0|ISLA DAWSON|2015-04-23T00:00:00|2599-12-31T23:59:59
C1|MG04|-52.8572|-71.57|82.0|Riesco|2015-02-14T00:00:00|2599-12-31T23:59:59
C1|MG05|-51.6784|-72.5032|99.0|Puerto Natales|2015-02-19T00:00:00|2599-12-31T23:59:59
C1|ML02|-35.7626|-71.4181|237.0|Panimavida|2014-11-07T00:00:00|2599-12-31T23:59:59
C1|ML03|-35.717189|-72.42244|274.0|Chanco|2020-01-29T18:21:37|2599-12-31T23:59:59
C1|MT01|-33.8641|-71.2509|310.0|Daracena|2014-01-14T00:00:00|2599-12-31T23:59:59
C1|MT02|-33.2591|-71.1377|323.0|Curacavi|2014-01-15T00:00:00|2599-12-31T23:59:59
C1|MT03|-33.4936|-70.5102|1087.0|Universidad Adolfo Ibanez|2014-04-22T00:00:00|2599-12-31T23:59:59
C1|MT04|-33.466388|-70.136194|1922.0|Olivares|2017-01-26T00:00:00|2599-12-31T23:59:59
C1|MT05|-33.3919|-70.7381|765.0|Cerro Colorado - Renca|2014-04-10T00:00:00|2599-12-31T23:59:59
C1|MT07|-32.975956|-71.015636|2234.0|Cerro El Roble|2014-01-10T00:00:00|2599-12-31T23:59:59
C1|MT08|-33.405158|-70.133366|2045.0|Bocatoma Colorado|2017-02-01T00:00:00|2599-12-31T23:59:59
C1|MT09|-33.77622|-70.98867|1371.0|Talagante|2014-10-15T00:00:00|2599-12-31T23:59:59
C1|MT10|-33.27279|-70.53723|1410.0|Hacienda Santa Martina|2017-01-27T00:00:00|2599-12-31T23:59:59
C1|MT12|-33.73273|-70.54869|727.1|Pirque|2017-01-27T00:00:00|2599-12-31T23:59:59
C1|MT13|-33.7435|-70.28609|1198.6|San Alfonso|2017-02-03T00:00:00|2599-12-31T23:59:59
C1|MT14|-33.39573|-70.536232|855.5|Calan|2017-08-17T00:00:00|2599-12-31T23:59:59
C1|MT15|-33.599397|-70.506261|784.4|Las Vizcachas|2017-10-20T16:28:13|2599-12-31T23:59:59
C1|MT16|-33.42848|-70.523351|780.0|CCHEN|2017-12-05T00:00:00|2599-12-31T23:59:59
C1|MT18|-33.4631|-70.66439|525.0|Casona|2018-03-07T12:00:00|2599-12-31T23:59:59
C1|TA01|-20.5656|-70.1807|75.0|Daracena|2013-11-21T00:00:00|2599-12-31T23:59:59
C1|TA02|-20.270527|-70.131035|23.3|Huaiquique|2018-09-06T18:19:08|2599-12-31T23:59:59
C1|VA01|-33.0229|-71.6374|37.0|Torpederas|2013-09-05T00:00:00|2599-12-31T23:59:59
C1|VA02|-27.1603|-109.4345|49.0|Isla de Pascua|2013-08-14T00:00:00|2599-12-31T23:59:59
C1|VA03|-32.7637|-70.5508|1053.0|San Esteban|2013-11-28T00:00:00|2599-12-31T23:59:59
C1|VA04|-33.6427|-78.8299|117.0|Juan Fernandez|2014-05-27T00:00:00|2599-12-31T23:59:59
C1|VA06|-32.56117|-71.29765|80.0|CATAPILCO|2015-09-11T00:00:00|2599-12-31T23:59:59
CA|ARBS|42.434492|1.533754|2145.0|La Rabassa|2009-10-01T00:00:00|2599-12-31T23:59:59
CA|CARA|42.707643|0.818132|1627.0|Aran|2011-11-16T00:00:00|2599-12-31T23:59:59
CA|CAVN|41.881578|0.750608|634.0|Les Avellanes|1999-06-01T00:00:00|2599-12-31T23:59:59
CA|CBEU|42.255629|2.675797|824.0|Beuda|2007-05-01T00:00:00|2599-12-31T23:59:59
CA|CBRU|42.284408|2.179001|1327.0|Bruguera|2000-12-01T00:00:00|2599-12-31T23:59:59
CA|CBUD|40.7044|0.8263|5.0|Illa de Buda|2016-03-09T00:00:00|2599-12-31T23:59:59
CA|CCAS|41.882875|2.904141|197.0|Cassa de la Selva|2005-12-16T00:00:00|2599-12-31T23:59:59
CA|CEST|42.598651|1.254059|1325.0|Esterri de Cardos|2006-06-01T00:00:00|2599-12-31T23:59:59
CA|CFAR|40.5604|0.6614|2.0|Far de la Banya|2016-03-01T00:00:00|2599-12-31T23:59:59
CA|CFON|41.761185|2.434581|973.0|Fontmartina|1999-06-01T00:00:00|2599-12-31T23:59:59
CA|CGAR|41.293309|1.913703|584.0|Garraf|2001-08-01T00:00:00|2599-12-31T23:59:59
CA|CLLI|42.478105|1.972973|1413.0|Llivia|1999-06-01T00:00:00|2599-12-31T23:59:59
CA|CMAS|40.72568|0.313875|530.0|Mas de Barberans|2006-04-01T00:00:00|2599-12-31T23:59:59
CA|CORG|42.229088|1.316531|720.0|Organya|2001-02-01T00:00:00|2599-12-31T23:59:59
CA|CORI|41.972401|2.048795|621.0|Orista|2006-02-01T00:00:00|2599-12-31T23:59:59
CA|CPAL|42.310533|3.16244|212.0|Palau-saverdera|2007-03-01T00:00:00|2599-12-31T23:59:59
CA|CSOR|42.374429|1.132743|1227.0|Soriguera|2001-12-01T00:00:00|2599-12-31T23:59:59
CA|CTRE|42.322275|0.77236|1318.0|Tremp|2006-07-01T00:00:00|2599-12-31T23:59:59
CC|JRO|46.27527|-122.21826|1219.0|Johnston Ridge Observatory|2004-10-02T00:00:00|2599-12-31T23:59:59
CH|BRANT|46.938011|6.47298|1145.0|Les Verrieres|2002-11-06T00:00:00|2599-12-31T23:59:59
CH|FIESA|46.435268|8.11043|2338.0|Fiescheralp|2009-11-12T00:00:00|2599-12-31T23:59:59
CH|FUORN|46.62022|10.26352|2333.0|Ofenpass-Fuorn|2000-09-29T00:00:00|2599-12-31T23:59:59
CH|HASLI|46.756809|8.15117|1280.0|Hasliberg/Brienz|1999-06-16T00:00:00|2599-12-31T23:59:59
CH|LIENZ|47.294601|9.4927|1720.0|Kamor / St. Gall|2004-10-28T14:10:00|2599-12-31T23:59:59
CH|MUGIO|45.92186|9.04167|830.0|Muggio|2002-02-20T00:00:00|2599-12-31T23:59:59
CH|SENIN|46.36335|7.2993|2035.0|Lac Selin/Sanetsch|2002-02-13T00:00:00|2599-12-31T23:59:59
CH|SLE|47.7645|8.49236|648.0|Schleitheim|2001-04-14T00:00:00|2599-12-31T23:59:59
CI|ADO|34.550461|-117.433907|908.0|Adelanto Receiving|2000-08-09T00:00:00|2599-12-31T23:59:59
CI|ARV|35.1269|-118.83009|258.0|Arvin|1983-09-15T00:00:00|2599-12-31T23:59:59
CI|BAK|35.34444|-119.104446|116.0|Calstate Bakersfield|1999-06-21T00:00:00|2599-12-31T23:59:59
CI|BAR|32.68005|-116.67215|529.0|Barrett|1932-09-04T00:00:00|2599-12-31T23:59:59
CI|BBR|34.2623|-116.92075|2069.0|Big Bear Solar Observatory|2000-06-14T22:00:00|2599-12-31T23:59:59
CI|BC3|33.655151|-115.453659|1137.0|Big Chuckawalla Mtns|1991-05-08T00:00:00|2599-12-31T23:59:59
CI|BEL|34.0006|-115.9982|1388.0|Belle Mountain Joshua Tree|2001-03-15T00:00:00|2599-12-31T23:59:59
CI|BFS|34.238831|-117.658531|1312.0|Mt. Baldy Ranger Station|2001-07-10T00:00:00|2599-12-31T23:59:59
CI|CHF|34.333408|-118.025848|1594.0|Chilao Flat Rngr Sta|1998-11-03T00:00:00|2599-12-31T23:59:59
CI|CIA|33.401897|-118.415024|477.0|Catalina Island Airport|1998-09-10T00:00:00|2599-12-31T23:59:59
CI|CWC|36.439049|-118.080498|1569.5|Cottonwood Creek|1965-10-15T00:00:00|2599-12-31T23:59:59
CI|DAN|34.637451|-115.381149|428.0|Danby|1998-09-22T00:00:00|2599-12-31T23:59:59
CI|DEC|34.253529|-118.333832|519.0|Green Verdugo Site|2000-08-10T20:30:00|2599-12-31T23:59:59
CI|DGR|33.65001|-117.00947|650.0|Domenigoni|1993-06-22T00:00:00|2599-12-31T23:59:59
CI|DJJ|34.10618|-118.45505|268.0|Donna Jones Jenkins|1998-11-09T00:00:00|2599-12-31T23:59:59
CI|EDW2|34.8811|-117.993881|772.0|Edwards 2|2004-05-04T00:00:00|2599-12-31T23:59:59
CI|FMP|33.712639|-118.293808|89.0|Fort Macarthur Park|2000-08-30T00:00:00|2599-12-31T23:59:59
CI|FUR|36.46703|-116.86322|-37.0|Furnace Creek|1996-11-19T00:00:00|2599-12-31T23:59:59
CI|GLA|33.05149|-114.82706|610.0|Glamis|1966-12-19T00:00:00|2599-12-31T23:59:59
CI|GMR|34.784569|-115.659943|1326.0|Granite Mountains Research Center|2006-04-04T00:00:00|2599-12-31T23:59:59
CI|GRA|36.996078|-117.366211|689.0|Grapevine Ranger Station|2001-04-18T00:00:00|2599-12-31T23:59:59
CI|GSC|35.301769|-116.80574|1000.0|Goldstone|1961-11-07T00:00:00|2599-12-31T23:59:59
CI|HEC|34.8294|-116.335|920.0|Hector|1997-08-01T00:00:00|2599-12-31T23:59:59
CI|IKP|32.65012|-116.109482|906.0|In-Ko-Pah|1972-03-29T00:00:00|2599-12-31T23:59:59
CI|IRM|34.157379|-115.145126|567.0|Iron Mountain|2001-12-05T00:00:00|2599-12-31T23:59:59
CI|ISA|35.66278|-118.47403|873.0|Isabella|1946-03-16T00:00:00|2599-12-31T23:59:59
CI|LRL|35.47954|-117.68212|1340.0|Laurel Mtn|1992-07-29T00:00:00|2599-12-31T23:59:59
CI|MLAC|37.630192|-118.836052|2162.0|Mammoth|1992-11-04T00:00:00|2599-12-31T23:59:59
CI|MPM|36.05799|-117.48901|1839.0|Manuel Prospect Mine|1998-06-25T00:00:00|2599-12-31T23:59:59
CI|MUR|33.599991|-117.195427|562.0|Murrieta|2005-07-25T00:00:00|2599-12-31T23:59:59
CI|MWC|34.22362|-118.05832|1725.0|Mount Wilson Obsv|1928-04-23T00:00:00|2599-12-31T23:59:59
CI|OSI|34.614498|-118.723503|718.0|Osito Audit: Castaic Lake|1995-06-28T00:00:00|2599-12-31T23:59:59
CI|PASC|34.17141|-118.18523|341.0|Art Center College of Design (GSN-affiliate)|2006-10-05T00:00:00|2599-12-31T23:59:59
CI|PDM|34.30336|-114.141518|144.0|Parker|2001-09-20T00:00:00|2599-12-31T23:59:59
CI|PHL|35.40773|-120.54556|355.0|Park Hill|1997-07-23T00:00:00|2599-12-31T23:59:59
CI|PLM|33.353611|-116.862648|1691.0|Palomar|1939-09-09T00:00:00|2599-12-31T23:59:59
CI|RPV|33.743462|-118.404121|107.0|Rancho Palos Verdes|1993-05-12T00:00:00|2599-12-31T23:59:59
CI|RRX|34.875332|-116.996841|676.2|Barstow Service Center|2000-11-08T00:00:00|2599-12-31T23:59:59
CI|SBC|34.440762|-119.71492|94.0|Santa Barbara|1932-01-05T00:00:00|2599-12-31T23:59:59
CI|SCI2|32.9799|-118.546967|199.0|San Clemente Island 2|2003-10-23T00:00:00|2599-12-31T23:59:59
CI|SDD|33.552589|-117.661713|120.0|Saddleback|1999-04-20T00:00:00|2599-12-31T23:59:59
CI|SHO|35.899529|-116.275299|451.0|Shoshone|1996-10-14T00:00:00|2599-12-31T23:59:59
CI|SLA|35.89095|-117.28332|1174.0|Slate Mountain|1999-03-09T00:00:00|2599-12-31T23:59:59
CI|SMM|35.3142|-119.99581|599.0|Simmler|1999-11-09T00:00:00|2599-12-31T23:59:59
CI|SVD|34.106468|-117.098221|605.0|Seven Oaks|1990-12-04T00:00:00|2599-12-31T23:59:59
CI|SWS|32.94508|-115.79988|140.0|Sam W. Stewart|1997-09-20T00:00:00|2599-12-31T23:59:59
CI|TIN|37.054218|-118.230087|1197.0|Tinemaha|1932-01-01T00:00:00|2599-12-31T23:59:59
CI|TUQ|35.435841|-115.923889|1350.0|Turquoise Mountain|2002-05-02T00:00:00|2599-12-31T23:59:59
CI|USC|34.019192|-118.286308|58.0|Univ Southern Ca|1993-02-17T00:00:00|2599-12-31T23:59:59
CI|VES|35.840889|-119.084686|154.0|Vestal|1999-09-30T00:00:00|2599-12-31T23:59:59
CI|VOG|36.32098|-119.382263|90.0|Valley Oaks Golf Course|2011-05-26T00:00:00|2599-12-31T23:59:59
CI|VTV|34.56065|-117.329597|843.0|Victorville|1993-04-14T00:00:00|2599-12-31T23:59:59
CM|HEL|6.1909|-75.529|2857.0|Santa Helena, Medellin, Colombia|2011-06-18T18:40:00|2599-12-31T23:59:59
CM|RUS|5.8925|-73.083167|3697.0|La Rusia, Boyaca, Colombia|2009-04-03T00:00:00|2599-12-31T23:59:59
CM|SJC|9.896667|-75.1795|596.0|San Jacinto, Bolivar, Colombia|2011-05-03T00:00:00|2599-12-31T23:59:59
CM|TUM|1.823667|-78.726667|50.0|Tumaco, Narino, Colombia|2007-06-30T00:00:00|2599-12-31T23:59:59
CM|URI|11.702|-71.993|68.0|Uribia, Guajira, Colombia|2008-12-17T00:00:00|2599-12-31T23:59:59
CN|A11|47.2431|-70.1969|55.0|St-Roch-Des-Aulnaies, QC, CA|1994-10-16T00:00:00|2599-12-31T23:59:59
CN|A16|47.468|-70.0096|13.0|Riviere Ouelle, QC, CA|1994-10-15T00:00:00|2599-12-31T23:59:59
CN|A21|47.7045|-69.6892|47.0|St-Andre, QC, CA|1994-10-17T00:00:00|2599-12-31T23:59:59
CN|A54|47.4568|-70.4134|377.0|Misere, QC, CA|1994-10-20T00:00:00|2599-12-31T23:59:59
CN|A61|47.6936|-70.0914|380.0|Sainte Mathilde, QC, CA|1994-10-19T00:00:00|2599-12-31T23:59:59
CN|A64|47.8274|-69.8914|132.0|Saint-Simeon, QC, CA|1994-10-19T00:00:00|2599-12-31T23:59:59
CN|ATKO|48.8231|-91.6004|382.7|Atikokan Iron Mine, ON, CA|2004-06-09T00:00:00|2599-12-31T23:59:59
CN|BAIB|52.5757|-131.7534|804.0|Barry Inlet, BC, CA|2017-08-10T00:00:00|2599-12-31T23:59:59
CN|BCLQ|46.9264|-71.1727|147.0|Boischatel, QC, CA|2007-11-02T00:00:00|2599-12-31T23:59:59
CN|BFSB|48.8336|-125.136|33.0|Bamfield, BC, CA|2013-11-15T00:00:00|2599-12-31T23:59:59
CN|BJBQ|50.2874|-62.8094|6.0|Baie Johan Beetz, QC, CA|2017-09-23T00:00:00|2599-12-31T23:59:59
CN|BLKN|64.3185|-96.0024|40.0|Baker Lake, NU, CA|2017-08-13T00:00:00|2599-12-31T23:59:59
CN|BMTB|56.0451|-122.1332|1099.0|Bullhead Mountain, BC, CA|2017-09-18T00:00:00|2599-12-31T23:59:59
CN|BPEB|50.1566|-127.7719|737.0|Brooks Peninsula, BC, CA|2018-06-22T00:00:00|2599-12-31T23:59:59
CN|BRWY|61.3704|-139.0338|802.5|Burwash Landing, YT, CA|2018-07-12T00:00:00|2599-12-31T23:59:59
CN|BVCY|62.4141|-140.8606|708.0|Beaver Creek, YT, CA|2010-08-14T00:00:00|2599-12-31T23:59:59
CN|CACQ|47.9481|-69.4996|6.0|Cacouna, QC, CA|2018-06-14T00:00:00|2599-12-31T23:59:59
CN|CBB|50.0315|-125.3652|277.0|Campbell River, BC, CA|1996-11-28T00:00:00|2599-12-31T23:59:59
CN|CHEG|46.8083|-60.6745|443.0|Cheticamp, NS, CA|2005-10-19T00:00:00|2599-12-31T23:59:59
CN|CHRO|46.0376|-77.3794|180.0|Chalk River, ON, CA|2018-10-17T00:00:00|2599-12-31T23:59:59
CN|CLRS|48.8203|-124.1309|174.0|Cowichan Lake Research St, BC, CA|2014-09-11T00:00:00|2599-12-31T23:59:59
CN|DAWY|64.0647|-139.3937|771.0|Dawson, YT, CA|1993-07-01T00:00:00|2599-12-31T23:59:59
CN|DI2B|53.2022|-132.4767|82.0|Dawson Inlet, BC, CA|2018-07-22T00:00:00|2599-12-31T23:59:59
CN|DIB|53.2025|-132.4767|68.0|Dawson Inlet, BC, CA|2004-03-15T00:00:00|2599-12-31T23:59:59
CN|DLBC|58.4368|-130.0304|976.0|Dease Lake, BC, CA|1994-09-28T00:00:00|2599-12-31T23:59:59
CN|DPQ|46.6803|-72.7771|179.0|St-Jean-Des-Piles, QC, CA|1996-09-20T00:00:00|2599-12-31T23:59:59
CN|DRLN|49.2562|-57.5032|241.0|Deer Lake, NL, CA|1993-12-14T00:00:00|2599-12-31T23:59:59
CN|EDM|53.223|-113.3497|727.0|Edmonton, AB, CA|1992-06-03T00:00:00|2599-12-31T23:59:59
CN|EFO|43.0925|-79.3099|137.0|Effingham, ON, CA|1995-02-28T00:00:00|2599-12-31T23:59:59
CN|EPLO|49.6737|-93.7258|437.3|Exp. Lake, ON, CA|2004-06-11T00:00:00|2599-12-31T23:59:59
CN|FCC|58.7592|-94.0884|19.0|Fort Churchill, MB, CA|1993-10-01T00:00:00|2599-12-31T23:59:59
CN|FNSB|58.8061|-122.7328|440.0|Fort Nelson, BC, CA|2017-08-02T00:00:00|2599-12-31T23:59:59
CN|FRB|63.7469|-68.5451|25.0|Iqaluit, NU, CA|1992-06-03T00:00:00|2599-12-31T23:59:59
CN|FSJB|54.4588|-124.2944|704.0|Fort St James, BC, CA|2015-11-04T00:00:00|2599-12-31T23:59:59
CN|GAC|45.7032|-75.4776|167.2|Glen Almond, QC, CA|1993-04-27T00:00:00|2599-12-31T23:59:59
CN|GBN|45.4079|-61.5128|47.0|Guysborough, NS, CA|2005-10-17T00:00:00|2599-12-31T23:59:59
CN|GDR|49.7805|-126.0557|123.0|Gold River, BC, CA|1996-11-28T00:00:00|2599-12-31T23:59:59
CN|GGN|45.1184|-66.842|28.0|Saint George, NB, CA|2002-01-30T00:00:00|2599-12-31T23:59:59
CN|GOBB|48.9493|-123.5105|173.0|Galiano Island, BC, CA|1999-02-02T00:00:00|2599-12-31T23:59:59
CN|GRQ|46.6059|-75.8587|303.0|Grand-Remous, QC, CA|1996-07-12T00:00:00|2599-12-31T23:59:59
CN|GTOO|49.7451|-86.9613|359.0|Geraldton, ON, CA|2017-06-11T00:00:00|2599-12-31T23:59:59
CN|HAL|44.6378|-63.5912|65.0|Halifax, NS, CA|2003-01-13T00:00:00|2599-12-31T23:59:59
CN|HOLB|50.6402|-128.1331|547.0|Holberg, BC, CA|1995-02-09T00:00:00|2599-12-31T23:59:59
CN|HOPB|49.3872|-121.4206|236.0|Hope, BC, CA|2001-11-23T00:00:00|2599-12-31T23:59:59
CN|HSNB|47.2769|-66.0601|337.0|Heath Steele Mine, NB, CA|2017-09-26T00:00:00|2599-12-31T23:59:59
CN|HYT|60.8267|-137.5072|1373.0|Haines Jct., YT, CA|1994-09-15T00:00:00|2599-12-31T23:59:59
CN|ICQ|49.5223|-67.2715|58.0|Islets-Caribou, QC, CA|1996-02-15T00:00:00|2599-12-31T23:59:59
CN|ILON|69.3712|-81.8243|50.0|Igloolik, NU, CA|2005-08-24T00:00:00|2599-12-31T23:59:59
CN|KAPO|49.451|-82.5077|221.0|Kapuskasing, ON, CA|1998-01-14T00:00:00|2599-12-31T23:59:59
CN|KGNO|44.2272|-76.4934|89.0|Kingston, ON, CA|1999-12-21T00:00:00|2599-12-31T23:59:59
CN|KILO|48.4972|-79.7232|314.0|Kirkland Lake, ON, CA|2003-06-22T00:00:00|2599-12-31T23:59:59
CN|KIPQ|46.7919|-79.0567|274.0|Kipawa, QC, CA|2017-06-04T00:00:00|2599-12-31T23:59:59
CN|KUKN|67.8227|-115.0897|51.0|Kugluktuk, NT, CA|2010-07-21T00:00:00|2599-12-31T23:59:59
CN|KUQ|58.109|-68.4113|54.0|Kuujjuaq, QC, CA|1998-02-04T00:00:00|2599-12-31T23:59:59
CN|LDAQ|47.9636|-71.2443|934.0|Lac Daran, QC, CA|2017-08-30T00:00:00|2599-12-31T23:59:59
CN|LGNH|18.511|-72.6058|62.0|LEOGANE, OU, HT|2010-02-14T00:00:00|2599-12-31T23:59:59
CN|LLLB|50.609|-121.8815|700.0|Lillooet, BC, CA|1998-11-17T00:00:00|2599-12-31T23:59:59
CN|LMN|45.8544|-64.8063|365.0|Caledonia Mtn., NB, CA|1993-07-26T00:00:00|2599-12-31T23:59:59
CN|LMQ|47.5485|-70.3258|455.0|La Malbaie, QC, CA|1992-06-03T00:00:00|2599-12-31T23:59:59
CN|MCNB|45.5958|-67.3198|167.0|McAdam, NB, CA|2016-05-21T00:00:00|2599-12-31T23:59:59
CN|MGRB|48.9997|-124.6971|1310.0|Mount Grey, BC, CA|2018-10-24T00:00:00|2599-12-31T23:59:59
CN|MNTQ|45.5003|-73.6228|112.0|Montreal, QC, CA|2010-07-26T00:00:00|2599-12-31T23:59:59
CN|MOBC|53.1437|-131.9663|704.0|Moresby, BC, CA|1996-02-26T00:00:00|2599-12-31T23:59:59
CN|NCSB|50.4031|-126.0559|1297.0|Newcastle Ridge, BC, CA|2017-11-01T00:00:00|2599-12-31T23:59:59
CN|NLLB|49.2271|-123.9882|199.0|Nanaimo Lost Lake, BC, CA|2003-01-01T00:00:00|2599-12-31T23:59:59
CN|NTKA|49.5924|-126.6166|12.0|Nootka, BC, CA|2013-03-23T00:00:00|2599-12-31T23:59:59
CN|ORIO|45.4515|-75.511|74.0|Orleans Innes Road, ON, CA|2008-06-19T00:00:00|2599-12-31T23:59:59
CN|OTT|45.3942|-75.7167|77.0|Ottawa, ON, CA|1992-06-01T00:00:00|2599-12-31T23:59:59
CN|OZB|48.9612|-125.4978|626.0|Mt. Ozzard, BC, CA|1996-03-28T00:00:00|2599-12-31T23:59:59
CN|PABB|49.2188|-124.8114|36.0|Port Alberni, BC, CA|2018-03-31T00:00:00|2599-12-31T23:59:59
CN|PACB|50.4355|-127.4925|24.0|Port Alice, BC, CA|2010-06-24T00:00:00|2599-12-31T23:59:59
CN|PGC|48.6498|-123.4521|12.0|Sidney, BC, CA|1993-07-01T00:00:00|2599-12-31T23:59:59
CN|PHC|50.7067|-127.433|32.0|Port Hardy, BC, CA|1995-12-14T00:00:00|2599-12-31T23:59:59
CN|PKLO|51.4987|-90.3522|376.2|Pickle Lake, ON, CA|2004-06-15T00:00:00|2599-12-31T23:59:59
CN|PLBC|59.455|-136.3659|285.0|Pleasant Camp, BC, CA|2005-09-03T00:00:00|2599-12-31T23:59:59
CN|PMAQ|49.8285|-64.3269|25.0|Port Menier Anticosti Is, QC, CA|2015-09-16T00:00:00|2599-12-31T23:59:59
CN|PNPO|48.5957|-86.2846|219.3|Pukaskwa, ON, CA|2004-06-18T00:00:00|2599-12-31T23:59:59
CN|PNT|49.3224|-119.6254|531.0|Penticton, BC, CA|1993-02-03T00:00:00|2599-12-31T23:59:59
CN|POIN|72.7012|-77.962|21.0|Pond Inlet, NU, CA|2018-09-07T00:00:00|2599-12-31T23:59:59
CN|PTRF|48.5442|-124.4131|164.0|Port Renfrew PTRF, BC, CA|2017-02-17T00:00:00|2599-12-31T23:59:59
CN|RES|74.6892|-94.8962|19.0|Resolute, NU, CA|1992-05-05T00:00:00|2599-12-31T23:59:59
CN|RUBB|54.3262|-130.2523|12.0|Prince Rupert, BC, CA|2001-07-18T00:00:00|2599-12-31T23:59:59
CN|SADO|44.7695|-79.1411|228.0|Sadowa, ON, CA|1993-12-03T00:00:00|2599-12-31T23:59:59
CN|SAKN|56.5359|-79.2324|2.0|Sanikiluaq, NU, CA|2014-11-25T00:00:00|2599-12-31T23:59:59
CN|SCHQ|54.8324|-66.8332|497.5|Schefferville, QC,|1994-12-22T00:00:00|2599-12-31T23:59:59
CN|SHB|49.5985|-123.8771|1129.0|Sechelt, BC, CA|1996-11-28T00:00:00|2599-12-31T23:59:59
CN|SJNN|47.5951|-52.678|143.0|St. Johns, NL, CA|2005-10-12T00:00:00|2599-12-31T23:59:59
CN|SNFQ|48.888|-67.3511|65.0|Sainte-Felicite, QC, CA|2018-06-16T00:00:00|2599-12-31T23:59:59
CN|SOLO|50.0215|-92.0808|370.0|Sioux Lookout, ON, CA|1998-11-04T00:00:00|2599-12-31T23:59:59
CN|SUBO|46.6115|-81.1321|281.0|Sudbury, ON, CA|2017-06-06T00:00:00|2599-12-31T23:59:59
CN|SYMB|48.5593|-123.7989|945.0|Survey Mountain, BC, CA|2016-09-19T00:00:00|2599-12-31T23:59:59
CN|TBO|48.6472|-89.4085|475.0|Thunder Bay, ON, CA|1993-10-05T00:00:00|2599-12-31T23:59:59
CN|TRQ|46.2176|-74.5513|860.0|Mont-Tremblant, QC, CA|2015-09-02T00:00:00|2599-12-31T23:59:59
CN|ULM|50.2503|-95.875|250.9|Lac Du Bonnet, MB, CA|1994-12-07T00:00:00|2599-12-31T23:59:59
CN|VGZ|48.4131|-123.3251|67.0|Victoria Gonzales, BC, CA|1994-07-21T00:00:00|2599-12-31T23:59:59
CN|VLDQ|48.1901|-77.7572|316.0|Val-dOr, QC, CA|2002-01-07T00:00:00|2599-12-31T23:59:59
CN|WBO|45.0012|-75.2753|840.0|Williamsburg, ON, CA|1993-12-16T00:00:00|2599-12-31T23:59:59
CN|WHY|60.6597|-134.8825|1273.0|Whitehorse, YT, CA|1994-10-03T00:00:00|2599-12-31T23:59:59
CN|WOSB|50.1608|-126.5704|961.0|Woss, BC, CA|1998-11-17T00:00:00|2599-12-31T23:59:59
CN|WPB|49.6478|-123.2094|260.0|Watts Point, BC, CA|1996-09-04T00:00:00|2599-12-31T23:59:59
CN|WSLR|50.1266|-122.9212|907.0|Whistler, BC, CA|2003-06-02T00:00:00|2599-12-31T23:59:59
CN|YUK2|61.7668|-140.8426|1229.0|White River, YT, CA|2010-08-28T00:00:00|2599-12-31T23:59:59
CN|YUK3|61.7755|-140.4595|2100.0|Moose Creek, YT, CA|2010-08-25T00:00:00|2599-12-31T23:59:59
CN|YUK4|61.4348|-138.5463|2009.0|Talbot Arm, YT, CA|2010-08-29T00:00:00|2599-12-31T23:59:59
CN|YUK5|61.1315|-137.8593|1619.0|Granite Creek, YT, CA|2010-08-23T00:00:00|2599-12-31T23:59:59
CN|YUK6|60.9432|-138.3626|2233.0|Outpost Mountain, YT, CA|2010-08-29T00:00:00|2599-12-31T23:59:59
CN|YUK7|60.5307|-138.1399|1992.0|Dusty Glacier, YT, CA|2010-08-24T00:00:00|2599-12-31T23:59:59
CN|YUK8|61.2844|-139.7646|2456.0|Steele Glacier, YT, CA|2012-09-07T00:00:00|2599-12-31T23:59:59
CO|BIRD|34.645|-80.4615|132.0|Birdtown, Kershaw, SC, USA|2010-08-25T00:00:00|2599-12-31T23:59:59
CO|CASEE|34.993|-82.9317|385.0|Lake Jocassee, SC, USA|2009-12-07T00:00:00|2599-12-31T23:59:59
CO|CSB|32.98698|-80.071545|6.0|Charleston Southern University, Charleston, SC, USA|2009-04-13T00:00:00|2599-12-31T23:59:59
CO|HAW|33.3612|-81.6097|112.0|Hawthorne Fire Tower, SC, USA|2010-03-11T00:00:00|2599-12-31T23:59:59
CO|HODGE|34.2315|-82.2586|151.0|Hodges, SC, USA|2010-03-25T00:00:00|2599-12-31T23:59:59
CO|JSC|34.2818|-81.25966|103.0|Jenkinsville, South Carolina|2009-04-13T00:00:00|2599-12-31T23:59:59
CO|PAULI|34.82097|-81.8144|179.0|Pauline, SC, USA|2011-04-26T00:00:00|2599-12-31T23:59:59
CO|SUMMV|33.0658|-80.2738|17.1|Summerville Airport, SC, USA|2015-04-21T00:00:00|2599-12-31T23:59:59
CO|TEEBA|32.8975|-80.1911|11.22|Mateeba, Summerville SC|2018-04-25T00:00:00|2599-12-31T23:59:59
CU|ANWB|17.66853|-61.78557|39.0|North Barbuda Island|2007-09-07T00:00:00|2599-12-31T23:59:59
CU|GRGR|12.1324|-61.654|195.0|Grenville, Grenada|2006-12-12T11:41:00|2599-12-31T23:59:59
CU|GRTK|21.51149|-71.1327|12.0|Grand Turk, Turks and Caicos Islands|2007-12-18T00:00:00|2599-12-31T23:59:59
CU|GTBY|19.9268|-75.1108|79.0|Guantanamo Bay, Cuba|2007-08-27T15:26:00|2599-12-31T23:59:59
CU|MTDJ|18.22605|-77.53454|925.0|Mount Denham, Jamaica|2007-12-08T00:00:00|2599-12-31T23:59:59
CW|CAIB|22.497055|-79.47097|33.0|Caibarien, Villa Clara|2016-02-08T00:00:00|2599-12-31T23:59:59
CW|CCCC|21.193399|-77.417297|89.6|Cascorrro,Camaguey,Cuba|1998-01-01T00:00:00|2599-12-31T23:59:59
CW|CHIV|19.97648|-76.415131|20.0|Chivirico, Guama, Santiago de Cuba|2015-11-04T00:00:00|2599-12-31T23:59:59
CW|MARV|20.005285|-75.906555|100.0|Mar Verde, Santiago de Cuba|2016-09-13T00:00:00|2599-12-31T23:59:59
CW|MASC|20.175501|-74.231201|413.6|Maisi,Guantanamo,Cuba|1998-01-01T00:00:00|2599-12-31T23:59:59
CW|NMDO|20.559826|-74.982674|50.0|Presa Nuevo Mundo, Moa, Holguin|2015-09-09T00:00:00|2599-12-31T23:59:59
CW|PILO|19.91395|-77.408806|472.0|El Mamey, Pilon, Granma|2016-01-29T00:00:00|2599-12-31T23:59:59
CW|QMBU|20.19887|-74.811867|355.0|Quimbuelo, San Antonio del Sur, Guantanamo|2016-09-17T00:00:00|2599-12-31T23:59:59
CW|SOR|22.7932|-83.008598|100.0|Soroa,Artemisa,Cuba|1998-01-01T00:00:00|2599-12-31T23:59:59
CY|CBCY|19.73797|-79.758278|31.5|The Bluff, Cayman Brac, Cayman Islands|2011-01-01T00:00:00|2599-12-31T23:59:59
CY|FSCY|19.312851|-81.183533|1.7|Frank Sound, Grand Cayman, Cayman Islands|2011-01-01T00:00:00|2599-12-31T23:59:59
CY|LCCY|19.667603|-80.08213|5.5|Blossom Village, Little Cayman, Cayman Islands|2011-01-01T00:00:00|2599-12-31T23:59:59
CZ|KHC|49.130901|13.5782|700.0|Kasperske Hory|1973-01-01T00:00:00|2599-12-31T23:59:59
DK|ANGG|65.616302|-37.6371|9.0|Tasiilaq, Greenland|2010-08-02T00:00:00|2599-12-31T23:59:59
DK|BSD|55.113998|14.915|88.0|BORNHOLM SKOVBRYNET, DENMARK|1996-09-01T00:00:00|2599-12-31T23:59:59
DK|DBG|74.307098|-20.219299|1.0|Daneborg, Greenland|2010-08-11T00:00:00|2599-12-31T23:59:59
DK|ILULI|69.212143|-51.104801|53.5|Ilulissat, Greenland|2009-07-14T00:00:00|2599-12-31T23:59:59
DK|ISOG|65.547997|-38.9757|12.0|Isortoq, Greenland|2012-09-06T00:00:00|2599-12-31T23:59:59
DK|KULLO|74.580498|-57.2201|44.0|Kullorsuaq, Greenland|1976-01-01T00:00:00|2599-12-31T23:59:59
DK|MUD|56.455002|9.1733|12.0|Station Monsted Kalkmine, Denmark|2004-12-04T00:00:00|2599-12-31T23:59:59
DK|NEEM|77.444702|-51.073799|2513.0|Ice sheet ridges, Greenland|2011-07-16T00:00:00|2599-12-31T23:59:59
DK|NOR|81.604698|-16.6609|36.0|Station Nord, Greenland|2010-07-06T00:00:00|2599-12-31T23:59:59
DK|NRS|61.159531|-45.418751|80.0|Narsarsuaq, Greenland|2009-01-29T00:00:00|2599-12-31T23:59:59
DK|NUUK|64.1838|-51.6679|110.0|Nuuk, Greenland|2010-07-26T00:00:00|2599-12-31T23:59:59
DK|SCO|70.485603|-21.949699|69.0|Ittoqqortoormiit, Greenland|2009-09-22T23:00:00|2599-12-31T23:59:59
DK|TULEG|76.537399|-68.8237|38.0|Thule Air Base, Greenland|2010-05-04T00:00:00|2599-12-31T23:59:59
EC|ANTS|-0.4973|-78.170403|4580.0|OVANTI_S|2011-10-15T00:00:00|2599-12-31T23:59:59
EC|CHSH|-1.49385|-78.869331|4476.0|OVCHIM_S|2012-09-20T00:00:00|2599-12-31T23:59:59
EC|COHC|-2.4661|-79.257401|626.0|RENSIG, RENAC|2012-05-02T00:00:00|2599-12-31T23:59:59
EC|GGPC|-0.1804|-78.593697|4495.0|OVPICH_S|2012-06-11T00:00:00|2599-12-31T23:59:59
EC|IMBA|0.2764|-78.199097|3404.0|OVIMBA_S|2011-10-05T00:00:00|2599-12-31T23:59:59
EC|SLOR|-0.729811|-78.496742|3600.0|TEMP - COTO|2015-06-16T00:00:00|2599-12-31T23:59:59
EC|TULM|0.7161|-77.786903|3677.0|RENSIG|2012-08-09T00:00:00|2599-12-31T23:59:59
EC|VCES|-0.79991|-78.39444|4044.0|RENSIG|2012-08-21T00:00:00|2599-12-31T23:59:59
EI|DSB|53.24519|-6.37619|236.0|Dublin, Ireland|2016-07-04T00:00:00|2599-12-31T23:59:59
EI|IDGL|55.073002|-7.51|123.0|Station Inch Island, Ireland|2011-01-01T00:00:00|2599-12-31T23:59:59
EI|IGLA|53.419498|-9.375|31.0|Station Glengowla, Ireland|2011-01-01T00:00:00|2599-12-31T23:59:59
EI|ILTH|54.055199|-6.2654|227.0|Corrakit Louth|2011-12-01T00:00:00|2599-12-31T23:59:59
EI|IWEX|52.374298|-6.774499|180.0|CARRICKBYRNE, CO WEXFORD|2011-01-01T00:00:00|2599-12-31T23:59:59
EI|VAL|51.9394|-10.2442|14.0|Valentia|2008-01-01T00:00:00|2599-12-31T23:59:59
EP|KIDD|31.771774|-106.506378|1162.5|KIDD Seismic Observatory, U. Texas El Paso, Texas, USA|2009-10-08T00:00:00|2599-12-31T23:59:59
ET|CPCT|35.45|-84.522|275.0|Cooper Cave,TN|2003-03-24T00:00:00|2599-12-31T23:59:59
ET|GFM|36.111|-81.807|1726.0|Grandfather Mountain,NC|1982-04-30T00:00:00|2599-12-31T23:59:59
ET|S5NC|36.50426|-81.07888|866.0|Sparta, NC aftershock station S5NC|2020-08-12T16:00:00|2599-12-31T23:59:59
ET|SWET|35.216|-85.932|581.0|Sewanee,TN|2000-05-15T00:00:00|2599-12-31T23:59:59
G|FDFM|14.73493|-61.159728|320.0|Morne la Rosette, Martinique, France|2019-10-24T00:00:00|2599-12-31T23:59:59
G|SANVU|-15.447148|167.203231|56.0|Espiritu Santo, Vanuatu|2011-11-01T00:00:00|2599-12-31T23:59:59
G|SSB|45.279|4.542|700.0|Tunnel de Badole - Saint Sauveur en Rue, France|1982-05-02T00:00:00|2599-12-31T23:59:59
GB|BIGH|58.4935|-3.9087|70.0|UPPER BIGHOUSE, SCOTLAND|2009-12-15T00:00:00|2599-12-31T23:59:59
GB|CCA1|50.186699|-5.227299|209.0|CARNMENELLIS, ENGLAND|2008-04-30T00:00:00|2599-12-31T23:59:59
GB|CWF|52.738499|-1.30767|203.0|CHARNWOOD FOREST, ENGLAND|2004-03-01T00:00:00|2599-12-31T23:59:59
GB|DRUM|56.912498|-2.4864|208.0|DRUMTOCHTY, SCOTLAND|2009-04-22T00:00:00|2599-12-31T23:59:59
GB|DYA|50.435329|-3.931|292.0|YADSWORTHY, ENGLAND|2007-01-17T00:00:00|2599-12-31T23:59:59
GB|EDI|55.923328|-3.1875|125.0|EDINBURGH, SCOTLAND|2003-12-16T00:00:00|2599-12-31T23:59:59
GB|EDMD|54.8312|-1.9636|337.0|EDMUNDBYERS, ENGLAND|2011-10-01T00:00:00|2599-12-31T23:59:59
GB|ELSH|51.147598|1.1366|129.0|ELHAM, ENGLAND|2008-06-21T00:00:00|2599-12-31T23:59:59
GB|ESK|55.316502|-3.2052|258.0|ESKDALEMUIR, SCOTLAND|2007-09-28T00:00:00|2599-12-31T23:59:59
GB|FOEL|52.887901|-3.2012|449.0|TREGEIROG, WALES|2008-10-29T00:00:00|2599-12-31T23:59:59
GB|GAL1|54.866329|-4.71133|117.0|GALLOWAY, SCOTLAND|2006-08-24T00:00:00|2599-12-31T23:59:59
GB|HMNX|50.867298|0.3363|26.0|HERSMONCEAUX, ENGLAND|2009-05-28T00:00:00|2599-12-31T23:59:59
GB|HPK|53.958172|-1.624168|233.0|HAVERAH PARK, ENGLAND|2007-02-14T00:00:00|2599-12-31T23:59:59
GB|HTL|50.994339|-4.484829|86.0|HARTLAND, ENGLAND|2003-07-16T00:00:00|2599-12-31T23:59:59
GB|INVG|56.42733|-4.04383|279.0|INVERGELDIE , ENGLAND|2010-11-18T00:00:00|2599-12-31T23:59:59
GB|IOMK|54.260502|-4.5662|188.0|KIRK MICHAEL, ISLE OF MAN|2012-02-10T00:00:00|2599-12-31T23:59:59
GB|JSA|49.187801|-2.171698|39.0|ST AUBINS, JERSEY|2007-09-06T00:00:00|2599-12-31T23:59:59
GB|KESW|54.588501|-3.1034|282.0|KESWICK, ENGLAND|2008-09-02T00:00:00|2599-12-31T23:59:59
GB|KPL|57.339169|-5.652669|13.0|PLOCKTON, SCOTLAND|2006-04-01T00:00:00|2599-12-31T23:59:59
GB|LBWR|53.4016|-1.724698|353.0|LADYBOWER, ENGLAND|2011-12-06T00:00:00|2599-12-31T23:59:59
GB|LMK|53.457298|-0.3274|133.0|MARKET RASEN, ENGLAND|2009-07-19T00:00:00|2599-12-31T23:59:59
GB|LRW|60.136002|-1.177829|98.0|LERWICK, SHETLAND ISLANDS|2003-07-16T00:00:00|2599-12-31T23:59:59
GB|SOFL|62.068501|-6.965798|721.0|SORNFELLI, FAROE ISLANDS|2007-09-17T00:00:00|2599-12-31T23:59:59
GB|STNC|53.091301|-2.206198|234.0|STOKE NEWCHAPEL, ENGLAND|2007-04-25T00:00:00|2599-12-31T23:59:59
GB|SWN1|51.513168|-1.800329|192.0|SWINDON, ENGLAND, UK, ENGLAND|2006-03-23T00:00:00|2599-12-31T23:59:59
GB|WACR|52.724602|0.6266|66.0|WEST ACRE, ENGLAND|2011-07-18T00:00:00|2599-12-31T23:59:59
GB|WLF1|53.289398|-4.3966|66.0|LLYNFAES, WALES|2009-12-15T00:00:00|2599-12-31T23:59:59
GE|BOAB|12.4493|-85.665901|381.0|INETER/GEOFON Station Boaco, Nicaragua|1999-11-11T00:00:00|2599-12-31T23:59:59
GE|DAG|76.771301|-18.655001|23.0|GEOFON/AWI Station Danmarkshavn, Greenland|1999-07-19T00:00:00|2599-12-31T23:59:59
GE|EIL|29.669901|34.951199|210.0|GEOFON Station Eilat, Israel|2008-05-23T00:00:00|2599-12-31T23:59:59
GE|TIRR|44.458099|28.4128|77.0|GEOFON Station Tirgusor, Romania|2003-10-13T00:00:00|2599-12-31T23:59:59
GE|UGM|-7.9125|110.523102|350.0|GEOFON Station Wanagama, Indonesia|1995-08-23T00:00:00|2599-12-31T23:59:59
GE|VSU|58.462002|26.734699|63.0|GEOFON Station Vasula, Estonia|2003-04-26T00:00:00|2599-12-31T23:59:59
GI|CHIE|14.559928|-89.341362|960.0|Esquipulas, Chiquimula|2013-01-01T00:00:00|2599-12-31T23:59:59
GI|HUEH|15.318176|-91.502541|1870.0|Huehuetenango, Huehuetenango|2013-01-01T00:00:00|2599-12-31T23:59:59
GI|IZAB|15.73|-88.584328|10.0|Izabal, Puerto Barrios|2013-01-01T00:00:00|2599-12-31T23:59:59
GI|PETF|16.916298|-89.866737|123.0|Flores, Peten|2013-01-01T00:00:00|2599-12-31T23:59:59
GI|RETA|14.524621|-91.694939|205.0|Retalhuleu, Retalhuleu|2013-01-01T00:00:00|2599-12-31T23:59:59
GM|NMP01|32.20476|-103.86048|1048.0|New Mexico Permian - Site# 01|2019-11-05T19:10:00|2599-12-31T23:59:59
GM|NMP02|32.08945|-103.86139|996.0|New Mexico Permian - Site# 02|2019-11-05T17:50:00|2599-12-31T23:59:59
GM|NMP25|32.33787|-103.860072|983.0|New Mexico Permian - Site# W2S5|2020-08-26T18:00:00|2599-12-31T23:59:59
GM|NMP34|32.26384|-103.68967|1121.66|New Mexico Permian - Site# W3S4|2020-08-25T18:00:00|2599-12-31T23:59:59
GM|NMP41|32.00509|-103.596471|959.89|New Mexico Permian - Site# W4S1|2020-08-28T16:00:00|2599-12-31T23:59:59
GM|NMP53|32.17626|-103.431176|1037.35|New Mexico Permian - Site# W5S3|2020-08-27T17:00:00|2599-12-31T23:59:59
GO|BATM|41.604|41.6936|298.0|Batumi|2012-11-12T22:00:00|2599-12-31T23:59:59
GO|BGD|41.2645|43.598598|1978.0|Ninotsminda|2010-10-11T07:14:00|2599-12-31T23:59:59
GO|DGRG|41.450722|45.373169|690.0|DGRG  -  DAVID-GAREJI|2010-01-01T00:00:00|2599-12-31T23:59:59
GO|GUDG|42.4646|44.4772|2012.0|Gudauri|2012-11-07T08:01:00|2599-12-31T23:59:59
GO|KZRT|41.3866|44.398701|723.0|Kazreti|2012-11-12T22:00:00|2599-12-31T23:59:59
GO|SEAG|41.763599|44.8036|607.0|TbilisiSea|2009-04-23T16:00:00|2599-12-31T23:59:59
GO|TBLG|41.730919|44.73819|510.0|Delisi, Georgia|2010-01-01T00:00:00|2035-01-01T00:00:00
GS|ALQ1|34.94239|-106.4579|1854.3|ASL Reference STS-2HG|2018-06-14T00:00:00|2599-12-31T23:59:59
GS|ALQ2|34.94239|-106.4579|1854.3|ASL Reference, STS-6|2018-06-14T00:00:00|2599-12-31T23:59:59
GS|ASA4|34.9423|-106.4626|1820.37|ASA4|2019-03-20T00:00:00|2599-12-31T23:59:59
GS|ASA5|34.9433|-106.45973|1834.98|ASA5|2019-05-14T00:00:00|2599-12-31T23:59:59
GS|DEC04|39.878595|-88.859425|225.4|Sangamon Road Surface Site|2013-08-15T00:00:00|2599-12-31T23:59:59
GS|DEC05|39.870067|-88.866275|215.606|Apollo Drive Surface Site|2013-06-05T22:00:00|2599-12-31T23:59:59
GS|DEC06|39.896748|-88.946442|214.8|Neely Ave Surface Site|2013-10-24T19:57:34|2599-12-31T23:59:59
GS|DEC08|39.861045|-88.924888|209.8|Union Local 159 Surface Site|2013-06-07T13:00:00|2599-12-31T23:59:59
GS|DEC09|39.874597|-88.924128|207.3|Kile Street Surface Site|2013-08-16T00:00:00|2599-12-31T23:59:59
GS|FSUO|30.445452|-84.298757|41.0|Florida State University Seismic Observatory|2020-04-01T00:00:00|2599-12-31T23:59:59
GS|ID11|44.11278|-115.43722|1305.5|ID11, Stanley, ID|2020-04-05T00:00:00|2599-12-31T23:59:59
GS|ID12|44.20763|-114.97187|1958.31|ID12, Stanley, ID|2020-11-05T00:00:00|2599-12-31T23:59:59
GS|KS28|37.993611|-97.992777|482.0|W Mills Ave, Hutchinson KS|2019-08-20T00:00:00|2599-12-31T23:59:59
GS|MCA04|38.07672|-117.7085|1661.5|MCA04, Monte Cristo Range, NV|2020-05-17T00:00:00|2599-12-31T23:59:59
GS|OK038|36.478211|-98.742223|443.0|West end E0370 Rd, Waynoka, OK USA|2016-02-17T00:00:00|2599-12-31T23:59:59
GS|OK048|36.41622|-96.94374|295.0|Pawnee, Oklahoma, Station 48|2016-09-08T00:00:00|2599-12-31T23:59:59
GS|OK051|36.50519|-96.83604|261.0|E0350 and S34600 roads, Ralston OK|2016-09-11T00:00:00|2599-12-31T23:59:59
GS|OK052|35.993611|-96.802778|259.0|Battle Ridge Rd, NW of Cushing, Oklahoma USA|2016-11-08T23:43:00|2599-12-31T23:59:59
GS|PR01|18.034722|-67.06777|32.9|PR01, Lajas|2020-01-10T13:30:00|2599-12-31T23:59:59
GS|PR02|18.01277|-66.77|3.0|PR02, Guayanilla|2020-01-10T00:00:00|2599-12-31T23:59:59
GS|PR03|18.066505|-66.937827|112.7|PR03, Alturas Sabaneras|2020-01-10T00:00:00|2599-12-31T23:59:59
GS|PR04|17.97833|-66.67056|57.2|PR04, Ponce|2020-01-11T00:00:00|2599-12-31T23:59:59
GS|PR05|18.04667|-66.86056|72.6|PR05, Yauco|2020-01-11T00:00:00|2599-12-31T23:59:59
GS|PR06|18.055676|-66.724744|55.7|PR06, Penuelas|2020-01-12T00:00:00|2599-12-31T23:59:59
GS|TSVA|36.56765|-105.446517|3000.0|Taos Kachina Peak Avalanche Study|2021-01-03T17:30:00|2599-12-31T23:59:59
GS|VEA1|34.944075|-106.459644|1844.9|VEA1|2018-04-10T00:00:00|2599-12-31T23:59:59
GS|VEA2|34.944083|-106.459661|1843.9|VEA1|2018-04-10T00:00:00|2599-12-31T23:59:59
HK|HKPS|22.277599|114.141502|196.3|Po Shan, Hong Kong|2009-10-29T00:00:00|2599-12-31T23:59:59
HL|ARG|36.213558|28.12122|148.0|Archaggelos, Rhodes, Greece|1997-10-14T00:00:00|2599-12-31T23:59:59
HL|ITM|37.178719|21.92522|423.0|Ithomi, Messinia, Greece|1997-06-05T00:00:00|2599-12-31T23:59:59
HL|RDO|41.145031|25.53553|116.0|Gratini, Thrace, Greece|1998-12-15T00:00:00|2599-12-31T23:59:59
HT|AGG|39.021099|22.336|622.0|AGIOS GEORGIOS, GREECE|2006-01-01T00:00:00|2599-12-31T23:59:59
HT|LIT|40.1008|22.49|480.0|Litochoro, Greece, HT-Net|2006-01-01T00:00:00|2599-12-31T23:59:59
HV|BYL|19.412086|-155.259872|1079.0|Byron's Ledge|1997-02-01T00:00:00|2599-12-31T23:59:59
HV|DEVL|19.373568|-155.240608|1046.0|Devil's Throat|2012-09-19T00:00:00|2599-12-31T23:59:59
HV|ERZ4|19.51702|-154.861137|80.0|East Rift Zone 4 Temporary|2018-05-16T00:00:00|2599-12-31T23:59:59
HV|HAT|19.423037|-155.26094|1097.0|Halemaumau Trail|1998-02-01T00:00:00|2599-12-31T23:59:59
HV|HLPD|19.296253|-155.30748|724.0|Hilina Pali Digital|2011-04-26T00:00:00|2599-12-31T23:59:59
HV|HOVE|19.164518|-155.749057|1592.0|Hawaiian Ocean View Estates|2016-06-29T00:00:00|2599-12-31T23:59:59
HV|HSSD|19.602682|-155.483002|2465.0|Humuluula Sheep Station Digital|2011-05-19T00:00:00|2599-12-31T23:59:59
HV|HUAD|19.68466|-155.835697|2204.0|Hualalai|2011-08-18T00:00:00|2599-12-31T23:59:59
HV|JCUZ|19.384045|-155.101578|826.0|Jacuzzi|2011-04-13T00:00:00|2599-12-31T23:59:59
HV|JOKA|19.433613|-155.004449|483.0|Jonika Flow|2012-09-17T00:00:00|2599-12-31T23:59:59
HV|KIND|19.460442|-154.950189|330.0|Kindschuh|2018-08-02T00:00:00|2599-12-31T23:59:59
HV|KKO|19.398242|-155.266032|1140.0|Keanakakoi Crater|1998-02-01T00:00:00|2599-12-31T23:59:59
HV|MLOD|19.493172|-155.386023|2063.0|Mauna Loa Digital|2011-04-12T00:00:00|2599-12-31T23:59:59
HV|MOKD|19.485115|-155.597133|4131.0|Mokuaweoweo Crater Digital|2010-10-08T00:00:00|2599-12-31T23:59:59
HV|NPOC|19.39296|-155.109605|805.0|North of Puu Oo|2007-07-05T00:00:00|2599-12-31T23:59:59
HV|OBL|19.417662|-155.284097|1119.0|Observatory Bluff|1998-02-01T00:00:00|2599-12-31T23:59:59
HV|PUHI|19.385509|-155.251312|1079.0|Puhimau Thermal Area|2015-05-14T22:00:00|2599-12-31T23:59:59
HV|RIMD|19.395368|-155.273643|1145.0|Caldera Rim Hawaii Digital|2010-11-10T00:00:00|2599-12-31T23:59:59
HV|SBL|19.427078|-155.267682|1081.0|Steam Bluff Hawaii|1998-02-01T00:00:00|2599-12-31T23:59:59
HV|SDH|19.390003|-155.293995|1115.0|Sand Hill|1998-02-01T00:00:00|2599-12-31T23:59:59
HV|STCD|19.38486|-155.12543|769.0|Steam Cracks Hawaii Digital|2011-03-14T00:00:00|2599-12-31T23:59:59
HV|TOUO|19.504323|-155.702741|2535.0|Tube O'o Hawaii|2013-07-23T00:00:00|2599-12-31T23:59:59
HV|UWB|19.42476|-155.277582|1084.0|Uwekahuna Bluff Hawaii|1998-02-01T00:00:00|2599-12-31T23:59:59
HV|UWE|19.420972|-155.291162|1231.0|Uwekahuna Vault Hawaii|1959-10-01T00:00:00|2599-12-31T23:59:59
HV|WRM|19.406623|-155.300005|1153.0|West Rim Hawaii Digital|1998-02-01T00:00:00|2599-12-31T23:59:59
IC|BJT|40.0183|116.1679|197.0|Baijiatuan, Beijing, China|1994-05-25T00:00:00|2599-12-31T23:59:59
IC|ENH|30.2762|109.4944|500.0|Enshi, Hubei Province, China|1997-09-20T00:00:00|2599-12-31T23:59:59
IC|HIA|49.2704|119.7414|620.0|Hailar, Neimenggu Autonomous Region, China|1994-12-04T00:00:00|2599-12-31T23:59:59
IC|LSA|29.7031|91.127|3660.0|Tibet, China|1995-08-03T00:00:00|2599-12-31T23:59:59
IC|MDJ|44.61763|129.59341|290.0|Mudanjiang, Heilongjiang Province, China|2013-05-05T04:00:00|2599-12-31T23:59:59
IC|QIZ|19.0291|109.8445|240.0|Qiongzhong, Hainan Province, China|2001-02-18T00:00:00|2599-12-31T23:59:59
IE|BCYI|44.310799|-113.405197|2194.0|Bear Canyon, Idaho, USA|2002-01-01T00:00:00|2599-12-31T23:59:59
IE|CRBI|43.830299|-112.634499|1543.0|Circular Butte, Idaho, USA|2002-01-01T00:00:00|2599-12-31T23:59:59
IE|GTRI|43.243999|-113.240997|1547.0|Grays Lake, Idaho, USA|2002-01-01T00:00:00|2599-12-31T23:59:59
IE|ICI|44.3293|-112.9412|2463.0|Italian Canyon, Idaho, USA|2002-01-01T00:00:00|2599-12-31T23:59:59
IE|LJI|43.820801|-112.844002|1600.0|Lemhi Junction, Idaho, USA|2002-01-01T00:00:00|2599-12-31T23:59:59
IE|LLRI|43.723|-112.932999|1471.0|Little Lost River, Idaho, USA|2002-01-01T00:00:00|2599-12-31T23:59:59
II|CMLA|37.7637|-25.5243|429.0|Cha de Macela, Sao Miguel Island, Azores|1996-03-10T00:00:00|2599-12-31T23:59:59
IM|CY101|34.20406|31.62915|-2476.0|RAF Akrotiri, Cyprus, Site CY101|2017-07-11T00:00:00|2599-12-31T23:59:59
IM|CY201|33.69757|31.90889|-2585.0|RAF Akrotiri, Cyprus, Site CY201|2017-07-11T00:00:00|2599-12-31T23:59:59
IM|CY302|33.29619|33.04393|-1691.0|RAF Akrotiri, Cyprus, Site CY302|2017-07-11T00:00:00|2599-12-31T23:59:59
IM|CY303|33.31014|33.05351|-1719.0|RAF Akrotiri, Cyprus, Site CY303|2017-07-11T00:00:00|2599-12-31T23:59:59
IM|CY601|34.34469|34.5054|-2030.0|RAF Akrotiri, Cyprus, Site CY601|2017-07-11T00:00:00|2599-12-31T23:59:59
IM|CY602|34.34664|34.51679|-2027.0|RAF Akrotiri, Cyprus, Site CY602|2017-07-11T00:00:00|2599-12-31T23:59:59
IM|CY603|34.33495|34.50269|-2039.0|RAF Akrotiri, Cyprus, Site CY603|2017-07-11T00:00:00|2599-12-31T23:59:59
IM|CY604|34.33934|34.51207|-2034.0|RAF Akrotiri, Cyprus, Site CY604|2017-07-11T00:00:00|2599-12-31T23:59:59
IM|CY606|34.33827|34.52103|-2032.0|RAF Akrotiri, Cyprus, Site CY606|2017-07-11T00:00:00|2599-12-31T23:59:59
IM|EKB|55.3339|-3.19229|308.0|Eskdalemuir Array, site EKB, Scotland|2008-11-25T00:00:00|2599-12-31T23:59:59
IM|H09N1|-37.068111|-12.31523|0.0|Tristan Da Cunha Seismic Site N1, United Kingdom|2004-03-17T00:00:00|2599-12-31T23:59:59
IM|H09W1|-37.09716|-12.33504|0.0|Tristan Da Cunha Seismic Site W1, United Kingdom|2004-03-17T00:00:00|2599-12-31T23:59:59
IN|PBA|11.655733|92.743919|79.0|Port Blair, Andaman and Nicobar Islands, India|2008-02-01T00:00:00|2599-12-31T23:59:59
IN|SHL|25.566816|91.855949|2.0|Shillong, Meghalaya, India|2007-10-14T00:00:00|2599-12-31T23:59:59
IO|EVN|27.958651|86.811653|5010.0|EvK2CNR Pyramid Laboratory - Mount Everest|2014-05-15T12:00:00|2599-12-31T23:59:59
IU|ADK|51.8823|-176.6842|130.0|Adak, Aleutian Islands, Alaska|2009-07-19T00:00:00|2599-12-31T23:59:59
IU|AFI|-13.9085|-171.7827|706.0|Afiamalu, Samoa|1993-08-24T00:00:00|2599-12-31T23:59:59
IU|ANMO|34.94591|-106.4572|1820.0|Albuquerque, New Mexico, USA|2002-11-19T21:07:00|2599-12-31T23:59:59
IU|ANTO|39.868|32.7934|1090.0|Ankara, Turkey|2002-05-30T00:00:00|2599-12-31T23:59:59
IU|BBSR|32.371299|-64.696299|30.0|Bermuda Institute of Ocean Sciences, St George's Bermuda|2008-08-01T00:00:00|2599-12-31T23:59:59
IU|CASY|-66.2792|110.5354|10.0|Casey, Antarctica|1996-02-19T00:00:00|2599-12-31T23:59:59
IU|CHTO|18.8141|98.9443|420.0|Chiang Mai, Thailand|2009-09-19T14:35:27|2599-12-31T23:59:59
IU|COLA|64.873599|-147.8616|200.0|College Outpost, Alaska, USA|2009-07-09T00:00:00|2599-12-31T23:59:59
IU|COR|44.5855|-123.3046|110.0|Corvallis, Oregon, USA|1989-10-26T00:00:00|2599-12-31T23:59:59
IU|CTAO|-20.08765|146.24998|367.0|Charters Towers, Australia|2019-05-17T00:00:00|2599-12-31T23:59:59
IU|DAV|7.0697|125.5791|151.0|Davao, Philippines|2011-07-27T00:00:00|2599-12-31T23:59:59
IU|DWPF|28.1103|-81.4327|30.0|Disney Wilderness Preserve, Florida, USA|1998-08-02T00:00:00|2599-12-31T23:59:59
IU|FUNA|-8.5259|179.1966|20.0|Funafuti, Tuvalu|2004-01-21T20:24:00|2599-12-31T23:59:59
IU|FURI|8.8952|38.6798|2570.0|Mt. Furi, Ethiopia|1997-09-01T00:00:00|2599-12-31T23:59:59
IU|GNI|40.148|44.741|1609.0|Garni, Armenia|1991-07-10T00:00:00|2599-12-31T23:59:59
IU|GRFO|49.6909|11.2203|384.0|Grafenberg, Germany|2015-01-19T00:00:00|2599-12-31T23:59:59
IU|GUMO|13.5893|144.8684|170.0|Guam, Mariana Islands|2010-01-12T00:00:00|2599-12-31T23:59:59
IU|HKT|29.96478|-95.83812|69.0|Hockley1 Texas|2018-01-26T16:50:00|2599-12-31T23:59:59
IU|HNR|-9.4387|159.9475|100.0|Honiara, Solomon Islands|1993-10-22T00:00:00|2599-12-31T23:59:59
IU|HRV|42.5064|-71.5583|200.0|Adam Dziewonski Observatory (Oak Ridge), Massachusetts, USA|2008-09-22T00:00:00|2599-12-31T23:59:59
IU|INCN|37.47768|126.62436|55.0|Inchon, Republic of Korea|2013-11-21T00:00:00|2599-12-31T23:59:59
IU|JOHN|16.7329|-169.5292|2.0|Johnston Island, USA|1998-07-24T00:00:00|2599-12-31T23:59:59
IU|KBS|78.9154|11.9385|90.0|Ny-Alesund, Spitzbergen, Norway|1994-11-05T00:00:00|2599-12-31T23:59:59
IU|KEV|69.7565|27.0035|100.0|Kevo, Finland|1993-06-07T00:00:00|2599-12-31T23:59:59
IU|KIEV|50.7012|29.2242|180.0|Kiev, Ukraine|2017-11-07T00:00:00|2599-12-31T23:59:59
IU|KIP|21.42|-158.0112|110.0|Kipapa, Hawaii, USA|1988-08-15T00:00:00|2599-12-31T23:59:59
IU|KMBO|-1.1271|37.2525|1950.0|Kilima Mbogo, Kenya|1995-09-17T00:00:00|2599-12-31T23:59:59
IU|KONO|59.6491|9.5982|216.0|Kongsberg, Norway|2009-09-12T15:02:42|2599-12-31T23:59:59
IU|LCO|-29.011|-70.7005|2274.0|Las Campanas Astronomical Observatory, Chile|2014-08-04T00:00:00|2599-12-31T23:59:59
IU|LSZ|-15.2779|28.1882|1200.0|Lusaka, Zambia|1994-08-05T00:00:00|2599-12-31T23:59:59
IU|MACI|28.2502|-16.508199|1674.0|Morro de la Arena, Canary Islands|2008-08-01T00:00:00|2599-12-31T23:59:59
IU|MAJO|36.54567|138.20406|405.0|Matsushiro, Japan|1990-08-18T00:00:00|2599-12-31T23:59:59
IU|MAKZ|46.808|81.977|600.0|Makanchi, Kazakhstan|2010-09-10T00:00:00|2599-12-31T23:59:59
IU|MBWA|-21.159|119.7313|190.0|Marble Bar, Western Australia|2001-08-25T00:00:00|2599-12-31T23:59:59
IU|MIDW|28.2156|-177.3698|20.0|Midway Island, USA|1999-10-23T00:00:00|2599-12-31T23:59:59
IU|NWAO|-32.9277|117.239|380.0|Narrogin, Australia|1991-11-25T00:00:00|2599-12-31T23:59:59
IU|OTAV|0.2376|-78.4508|3510.0|Otavalo, Ecuador|2009-04-01T00:00:00|2599-12-31T23:59:59
IU|PAB|39.5446|-4.3499|950.0|San Pablo, Spain|2009-08-14T00:00:00|2599-12-31T23:59:59
IU|PAYG|-0.6742|-90.2861|270.0|Puerto Ayora, Galapagos Islands|1998-06-19T00:00:00|2599-12-31T23:59:59
IU|PMG|-9.4047|147.1597|90.0|Port Moresby, New Guinea|1993-09-10T00:00:00|2599-12-31T23:59:59
IU|PMSA|-64.7744|-64.0489|40.0|Palmer Station, Antarctica|1993-03-03T00:00:00|2599-12-31T23:59:59
IU|POHA|19.7573|-155.5326|1990.0|Pohakuloa, Hawaii, USA|1999-11-13T00:00:00|2599-12-31T23:59:59
IU|PTCN|-25.0713|-130.0953|220.0|Pitcairn Island, South Pacific|1996-12-29T00:00:00|2599-12-31T23:59:59
IU|QSPA|-89.9289|144.4382|2850.0|South Pole Remote Earth Science Observatory (Quiet Zone)|2002-12-29T00:00:00|2599-12-31T23:59:59
IU|RAO|-29.245|-177.929|60.0|Raoul, Kermadec Islands|2004-07-18T00:00:00|2599-12-31T23:59:59
IU|RAR|-21.2125|-159.7733|28.0|Rarotonga, Cook Islands|1992-03-07T00:00:00|2599-12-31T23:59:59
IU|RCBR|-5.8274|-35.9014|400.0|Riachuelo, Brazil|2009-07-29T00:00:00|2599-12-31T23:59:59
IU|RSSD|44.1212|-104.0359|2090.0|Black Hills, South Dakota, USA|2009-09-09T00:00:00|2599-12-31T23:59:59
IU|SBA|-77.8492|166.7572|50.0|Scott Base, Antarctica|1998-10-28T00:00:00|2599-12-31T23:59:59
IU|SDV|8.8839|-70.634|1620.0|Santo Domingo, Venezuela|1994-08-19T00:00:00|2599-12-31T23:59:59
IU|SFJD|66.9961|-50.62076|330.0|Sondre Stromfjord, Greenland|2005-01-31T16:00:00|2599-12-31T23:59:59
IU|SJG|18.1091|-66.15|420.0|San Juan, Puerto Rico|2010-04-16T00:00:00|2599-12-31T23:59:59
IU|SNZO|-41.3087|174.7043|120.0|South Karori, New Zealand|1992-04-07T00:00:00|2599-12-31T23:59:59
IU|TARA|1.3549|172.9229|20.0|Tarawa Island, Republic of Kiribati|2009-11-13T00:10:27|2599-12-31T23:59:59
IU|TATO|24.9735|121.4971|160.0|Taipei, Taiwan|2009-09-22T13:56:41|2599-12-31T23:59:59
IU|TEIG|20.2263|-88.2763|40.0|Tepich, Yucatan, Mexico|1996-11-01T00:00:00|2599-12-31T23:59:59
IU|TRIS|-37.0681|-12.3152|60.0|Tristan da Cunha|2004-03-03T00:00:00|2599-12-31T23:59:59
IU|TSUM|-19.2022|17.5838|1260.0|Tsumeb, Namibia|1994-08-19T00:00:00|2599-12-31T23:59:59
IU|TUC|32.3098|-110.7847|910.0|Tucson, Arizona|2009-05-28T19:40:00|2599-12-31T23:59:59
IU|ULN|47.8651|107.0532|1610.0|Ulaanbaatar, Mongolia|1994-10-31T00:00:00|2599-12-31T23:59:59
IU|WAKE|19.2834|166.652|20.0|Wake Island|2007-11-15T00:00:00|2599-12-31T23:59:59
IU|WCI|38.2289|-86.2939|210.0|Wyandotte Cave, Indiana, USA|1997-07-17T00:00:00|2599-12-31T23:59:59
IU|WVT|36.1297|-87.83|170.0|Waverly, Tennessee, USA|1997-04-16T00:00:00|2599-12-31T23:59:59
IU|XMAS|2.0448|-157.4457|20.0|Kiritimati Island, Republic of Kiribati|1997-08-22T00:00:00|2599-12-31T23:59:59
JM|STHB|18.07737|-76.809387|456.0|Stoney Hill, Jamaica|2011-01-01T00:00:00|2599-12-31T23:59:59
KC|TARG|41.729099|77.804802|3530.0|Taragai, Kyrgyzstan|2008-08-14T00:00:00|2599-12-31T23:59:59
KO|BALB|39.639999|27.879999|120.0|BALIKESIR|2007-06-15T00:00:00|2599-12-31T23:59:59
KO|GURO|38.5509|42.032219|1388.0||2011-10-25T00:00:00|2599-12-31T23:59:59
KP|UPNV|72.782898|-56.1395|38.0|Upernavik, Greenland|2013-08-01T00:00:00|2599-12-31T23:59:59
KR|FRU1|42.81233|74.6284|926.0|Frunze, Kyrgyzstan|2010-06-30T00:00:00|2599-12-31T23:59:59
KY|CUSSO|36.552238|-89.329704|91.0|Central United States Seismic Observatory|2014-03-24T00:00:00|2599-12-31T23:59:59
LB|BMN|40.4314|-117.221001|1594.0|Battle Mountain, Nevada, USA|1994-06-23T00:00:00|2599-12-31T23:59:59
LB|TPH|38.075001|-117.222504|1883.0|Tonopah, Nevada, USA|1996-12-23T00:00:00|2599-12-31T23:59:59
LD|ACCN|43.3843|-73.6678|340.0|Adirondack Community College, Queensbury, NY|1999-11-10T00:00:00|2599-12-31T23:59:59
LD|BRNJ|40.682695|-74.565742|50.0|Basking Ridge, New Jersey|1999-11-08T00:00:00|2599-12-31T23:59:59
LD|BRNY|41.414036|-74.011889|248.0|Black Rock Forest, Cornwall, NY|2006-06-16T00:00:00|2599-12-31T23:59:59
LD|CCNY|42.92732|-78.8551|194.0|Canisius College, Buffalo, NY|2013-12-05T00:00:00|2599-12-31T23:59:59
LD|CFNY|44.16515|-75.05135|461.0|Clifton-Fine, NY|2015-10-08T00:00:00|2599-12-31T23:59:59
LD|CPNY|40.7911|-73.9602|27.0|Central Park, New York City|2002-02-21T00:00:00|2599-12-31T23:59:59
LD|CUNY|40.73493|-73.817611|20.0|Queens College, Flushing-Queens, NYC|2002-06-02T00:00:00|2599-12-31T23:59:59
LD|FLET|44.722505|-72.95215|336.0|Fletcher, VT|1977-01-01T00:00:00|2599-12-31T23:59:59
LD|FMMC|40.1376|-76.2585|101.2|Franklin & Marshall College/Millport Conservancy, PA|2017-08-17T18:50:00|2599-12-31T23:59:59
LD|FOR|40.8603|-73.8852|0.0|Fordham University, The Bronx, NYC|2002-04-18T00:00:00|2599-12-31T23:59:59
LD|GCMD|39.5624|-79.3382|794.8|Garrett College, McHenry, MD|2018-06-26T00:00:00|2599-12-31T23:59:59
LD|KSCT|41.72612|-73.48425|114.0|Kent School, Kent, CT|2011-11-16T00:00:00|2599-12-31T23:59:59
LD|KSPA|41.557038|-75.768181|298.0|Keystone College, La Plume, PA|2009-07-09T00:00:00|2599-12-31T23:59:59
LD|MCVT|43.95367|-72.99175|439.0|Middlebury College, Vermont|2011-08-04T00:00:00|2599-12-31T23:59:59
LD|MMNY|42.731683|-77.906535|241.0|Mount Morris Dam, NY|2008-08-06T00:00:00|2599-12-31T23:59:59
LD|NCB|43.973468|-74.22307|575.0|Newcomb, New York|1992-01-01T00:00:00|2599-12-31T23:59:59
LD|NPNY|41.75459|-74.143539|216.0|Mohonk Preserve, New Paltz, NY|2007-09-07T00:00:00|2599-12-31T23:59:59
LD|ODNJ|41.0829|-74.6056|187.0|Ogdensburg, New Jersey|2007-06-23T00:00:00|2599-12-31T23:59:59
LD|PAL|41.0056|-73.9079|66.0|Palisades, New York|1980-01-01T00:00:00|2599-12-31T23:59:59
LD|PANJ|40.3769|-74.7029|100.0|Princeton, NJ|2008-02-16T00:00:00|2599-12-31T23:59:59
LD|PRNY|42.466617|-76.536167|248.0|Paleontological Research Institution, Ithaca, NY|2006-03-30T00:00:00|2599-12-31T23:59:59
LD|PTNY|44.5578|-74.9508|275.0|Frank Revetta Observatory, Potsdam NY|2015-07-16T00:00:00|2599-12-31T23:59:59
LD|ROC|43.1242|-77.5925|156.9|McQuaid Jesuit High School, Rochester, NY|2018-09-18T00:00:00|2599-12-31T23:59:59
LD|SDMD|39.4102|-76.8403|212.0|Soldier's Delight, Maryland|2001-11-01T00:00:00|2599-12-31T23:59:59
LD|TUPA|40.16625|-75.18642|112.0|Temple University, Pennsylvania|2010-05-07T00:00:00|2599-12-31T23:59:59
LD|UCCT|41.794323|-72.225545|200.0|University of Connecticut, Storrs, CT|2005-03-04T00:00:00|2599-12-31T23:59:59
LD|UNH|43.09265|-70.86503|5.0|University of New Hampshire, Durham, NH, USA|2013-11-26T00:00:00|2599-12-31T23:59:59
LD|WADE|38.67942|-75.249611|11.4|Warrington Farm, Harbeson, DE|2018-06-27T00:00:00|2599-12-31T23:59:59
LX|GGNV|38.718498|-9.1505|77.0|Lisboa, Geofisico, Portugal|2007-09-01T00:00:00|2599-12-31T23:59:59
LX|MESJ|37.839539|-8.21994|250.0|Messejana, Aljustrel, Portugal|2005-06-01T00:00:00|2599-12-31T23:59:59
LX|MORF|37.304321|-8.652672|560.0|Marmelete, Algarve, Portugal|2005-06-01T00:00:00|2599-12-31T23:59:59
MB|BUT|46.010833|-112.556667|1758.0|Butte, Montana|2001-08-15T00:00:00|2599-12-31T23:59:59
MB|GBMT|46.859202|-112.456997|2248.0|Granite Butte|2020-07-30T21:30:00|2599-12-31T23:59:59
MB|HLMT|45.9028|-112.5552|1843.0|Hummingbird Lane|2020-12-11T21:00:00|2599-12-31T23:59:59
MB|JTMT|47.74667|-114.2825|1469.0|Jette Lake, Montana|2001-08-15T00:00:00|2599-12-31T23:59:59
MB|SRMT|47.775002|-112.607201|1522.0|Salmond Ranch|2020-11-05T23:25:15|2599-12-31T23:59:59
MG|TXMV|20.61123|-99.93089|1908.0|CEIEPAA, FMVZ, UNAM, Tequisquiapan, Queretaro, MEXICO|2020-02-21T19:00:00|2599-12-31T23:59:59
MN|AQU|42.354|13.405|710.0|L'Aquila, Italy|1988-08-01T00:00:00|2599-12-31T23:59:59
MN|BNI|45.051998|6.678|1395.0|Bardonecchia, Italy|1988-04-30T00:00:00|2599-12-31T23:59:59
MN|CLTB|37.577999|13.216|949.0|Caltabellotta, Italy|2000-09-07T00:00:00|2599-12-31T23:59:59
MP|AMR2|31.989901|47.190201|9.0|Amara, Iraq|2015-11-07T00:00:00|2599-12-31T23:59:59
MP|BSR2|30.2927|47.619099|16.0|Basra, Iraq|2015-09-05T00:00:00|2599-12-31T23:59:59
MP|NSR4|31.5399|46.201599|7.0|Nasiriya, Iraq|2017-10-08T00:00:00|2599-12-31T23:59:59
MS|BTDF|1.3617|103.775002|57.0|Bukit Timah Dairy Farm|1996-01-01T00:00:00|2599-12-31T23:59:59
MS|UBIN|1.4179|103.953796|26.0|Ubin|2009-03-25T00:00:00|2599-12-31T23:59:59
MU|MUH1|40.228176|-81.14579|365.0|Harrison|2016-01-01T00:00:00|2599-12-31T23:59:59
MX|CCIG|16.281799|-92.136803|1625.0|COMITAN|2007-10-25T00:00:00|2599-12-31T23:59:59
MX|HPIG|26.936794|-105.664017|1786.0|HIDALGO DEL PARRAL|2006-12-20T00:00:00|2599-12-31T23:59:59
MX|HSIG|29.019754|-110.94928|250.0|HERMOSILLO|2007-06-18T00:00:00|2599-12-31T23:59:59
MX|SRIG|27.319826|-112.241058|61.0|SANTA ROSALIA|2008-02-28T00:00:00|2599-12-31T23:59:59
MX|TLIG|17.562653|-98.566498|1136.0|TLAPA|2009-10-13T00:00:00|2599-12-31T23:59:59
MX|ZAIG|22.769176|-102.567123|2408.0|ZACATECAS|2014-10-03T00:00:00|2599-12-31T23:59:59
MY|IPM|4.4795|101.025497|247.0|Ipoh|2005-02-17T00:00:00|2599-12-31T23:59:59
MY|KKM|6.0443|116.214699|830.0|Kota Kinabalu|2005-02-17T00:00:00|2599-12-31T23:59:59
MY|KSM|1.4733|110.308296|66.0|Kuching|2005-02-17T00:00:00|2599-12-31T23:59:59
MY|KUM|5.2902|100.6492|74.0|Kulim|2005-02-17T00:00:00|2599-12-31T23:59:59
MY|LDM|5.1777|118.498001|177.0|Lahad Datu|2005-02-17T00:00:00|2599-12-31T23:59:59
MY|SBM|2.4529|112.213997|237.0|Sibu|2005-02-17T00:00:00|2599-12-31T23:59:59
N4|060A|27.0361|-80.3618|9.0|Indiantown, FL, USA|2014-02-04T00:00:00|2599-12-31T23:59:59
N4|143B|32.7032|-91.4036|31.0|Socs Landing, Pioneer, LA, USA|2014-01-30T00:00:00|2599-12-31T23:59:59
N4|146B|32.6368|-89.0573|161.0|Union, MS, USA|2014-03-02T00:00:00|2599-12-31T23:59:59
N4|154A|32.6131|-83.1066|111.0|Montrose, GA, USA|2014-02-10T00:00:00|2599-12-31T23:59:59
N4|250A|31.9778|-86.2677|152.0|Grady, AL, USA|2013-12-16T00:00:00|2599-12-31T23:59:59
N4|257A|31.9746|-81.0261|9.0|Skidaway Island, Savannah, GA, USA|2014-01-21T00:00:00|2599-12-31T23:59:59
N4|346B|31.3876|-89.4649|86.0|Big Creek Wildlife, Hattiesburg, MS, USA|2014-01-26T00:00:00|2599-12-31T23:59:59
N4|352A|31.4793|-84.9274|93.1|Blakely, GA, USA|2014-02-03T00:00:00|2599-12-31T23:59:59
N4|441B|30.7498|-93.1898|33.0|Storozyszyn Site, DeRidder, LA, USA|2014-01-15T00:00:00|2599-12-31T23:59:59
N4|451A|30.616|-85.7467|20.0|Vernon, FL, USA|2013-12-16T00:00:00|2599-12-31T23:59:59
N4|456A|30.7248|-82.0223|26.0|Hilliard, FL, USA|2013-12-19T00:00:00|2599-12-31T23:59:59
N4|545B|30.0441|-90.4894|8.0|Wilberts Farm, Edgard, LA, USA|2014-01-21T00:00:00|2599-12-31T23:59:59
N4|553A|30.189|-84.4317|16.0|Crawfordville, FL, USA|2013-12-16T00:00:00|2599-12-31T23:59:59
N4|656A|29.3689|-82.5348|28.0|Willston, FL, USA|2013-12-20T00:00:00|2599-12-31T23:59:59
N4|735B|28.8553|-97.8082|109.0|Kenedy, TX, USA|2014-02-27T00:00:00|2599-12-31T23:59:59
N4|ABTX|32.6238|-99.6431|502.0|Abilene, Hawley, TX, USA|2018-08-15T00:00:00|2599-12-31T23:59:59
N4|BGNE|41.4083|-98.1502|573.0|Belgrade, NE, USA|2018-08-15T00:00:00|2599-12-31T23:59:59
N4|D62A|47.0819|-69.0501|189.0|Allapoint, Allagash, ME, USA|2015-09-09T00:00:00|2599-12-31T23:59:59
N4|E28B|46.5748|-100.6934|704.0|Huff Hills, Mandan, ND, USA|2014-03-17T00:00:00|2599-12-31T23:59:59
N4|E38A|46.6058|-91.554|341.0|The Farm, Brule, WI, USA|2013-11-26T00:00:00|2599-12-31T23:59:59
N4|E46A|46.3665|-84.3062|269.0|Sault Ste Marie, MI, USA|2013-11-26T00:00:00|2599-12-31T23:59:59
N4|E62A|46.6201|-69.5227|356.0|Clayton Lake, ME, USA|2015-09-11T00:00:00|2599-12-31T23:59:59
N4|F33B|45.8398|-96.2929|314.0|5 Mile Ranch, Herman, MN, USA|2014-03-28T00:00:00|2599-12-31T23:59:59
N4|F42A|45.7587|-88.1347|358.0|Maple Grove Farm, Niagara, WI, USA|2013-11-27T00:00:00|2599-12-31T23:59:59
N4|F64A|45.8633|-68.3496|179.0|Sherman, ME, USA|2015-09-08T00:00:00|2599-12-31T23:59:59
N4|G40A|45.268398|-90.2006|472.0|Rib Lake, WI, USA|2013-11-27T00:00:00|2599-12-31T23:59:59
N4|G62A|45.2186|-70.5319|426.0|West of Eustis, ME, USA|2015-09-15T00:00:00|2599-12-31T23:59:59
N4|G65A|45.2002|-67.5632|78.0|Princeton, ME, USA|2015-09-08T00:00:00|2599-12-31T23:59:59
N4|H43A|44.4697|-87.7704|274.0|Windswept, Luxemburg, WI, USA|2013-11-27T00:00:00|2599-12-31T23:59:59
N4|H62A|44.574299|-71.155899|381.0|Milan, NH, USA|2015-08-15T00:00:00|2599-12-31T23:59:59
N4|I37B|44.0149|-93.4003|354.0|Waseca, MN, USA|2014-03-15T00:00:00|2599-12-31T23:59:59
N4|I40B|43.8916|-90.6177|419.0|Norwalk, WI, USA|2013-11-12T00:00:00|2599-12-31T23:59:59
N4|I42A|43.8908|-88.9134|298.0|Draeger Farm, Ripon, WI, USA|2013-11-27T00:00:00|2599-12-31T23:59:59
N4|I45A|44.0361|-86.2348|215.0|Fountain, MI, USA|2014-07-14T00:00:00|2599-12-31T23:59:59
N4|I62A|43.8743|-71.3359|264.0|Tamworth, NH, USA|2015-09-22T00:00:00|2599-12-31T23:59:59
N4|I63A|44.0505|-70.5809|177.0|Otisfield, ME, USA|2015-09-17T00:00:00|2599-12-31T23:59:59
N4|J47A|43.2382|-84.8214|236.0|Sunmer, MI, USA|2014-06-23T00:00:00|2599-12-31T23:59:59
N4|J55A|43.2657|-77.8167|97.0|Hilton, NY, USA|2014-10-10T00:00:00|2599-12-31T23:59:59
N4|J57A|43.4099|-75.9968|191.0|Williamstown, NY, USA|2015-06-22T00:00:00|2599-12-31T23:59:59
N4|J59A|43.464699|-74.504097|541.0|Piesco, NY, USA|2015-06-15T00:00:00|2599-12-31T23:59:59
N4|J61A|43.346199|-72.553497|253.0|Chester|2015-09-21T00:00:00|2599-12-31T23:59:59
N4|K22A|42.6507|-106.524|1686.0|Casper, WY, USA|2018-08-15T00:00:00|2599-12-31T23:59:59
N4|K43A|42.7044|-88.332|264.0|Burlington, WI, USA|2013-11-27T00:00:00|2599-12-31T23:59:59
N4|K50A|42.774899|-82.6231|191.0|Casco, MI, USA|2014-07-23T00:00:00|2599-12-31T23:59:59
N4|K57A|42.7313|-76.516296|408.0|Scipio Center|2015-05-23T00:00:00|2599-12-31T23:59:59
N4|K62A|42.6651|-72.2345|289.0|Royalston, MA, USA|2015-09-23T00:00:00|2599-12-31T23:59:59
N4|KMSC|35.141998|-81.333298|240.0|Kings Moutain, Blacksburg, SC, USA|2018-08-15T00:00:00|2599-12-31T23:59:59
N4|KSCO|39.0112|-102.6273|1382.0|Kaye Shedlock's, Cheyenne Wells, CO, USA|2018-08-15T00:00:00|2599-12-31T23:59:59
N4|L34B|41.9666|-96.3762|414.0|Svendsen Farm, Lyons, NE, USA|2014-03-22T00:00:00|2599-12-31T23:59:59
N4|L40A|42.0628|-91.2218|242.0|Anamosa, IA, USA|2013-11-27T00:00:00|2599-12-31T23:59:59
N4|L42A|42.004|-89.667|257.0|Oliver, Polo, IL, USA|2013-11-19T00:00:00|2599-12-31T23:59:59
N4|L56A|42.1365|-77.5591|688.0|Greenwood, NY, USA|2015-06-15T00:00:00|2599-12-31T23:59:59
N4|L59A|42.1902|-75.0426|677.0|Walton, NY, USA|2015-06-11T00:00:00|2599-12-31T23:59:59
N4|L61B|42.4498|-72.6802|261.0|Northampton, MA, USA|2019-03-13T00:00:00|2599-12-31T23:59:59
N4|L64A|41.9359|-70.8391|17.0|Middleborough, MA, USA|2015-09-26T00:00:00|2599-12-31T23:59:59
N4|M44A|41.3882|-88.0432|207.0|Midewin, Midewin Nat. Tallgrass Prarie, IL, USA|2013-11-08T00:00:00|2599-12-31T23:59:59
N4|M50A|41.4035|-83.042801|176.0|Fremont, OH, USA|2014-05-14T00:00:00|2599-12-31T23:59:59
N4|M52A|41.540501|-81.357002|382.0|Chesterland, OH, USA|2014-10-28T00:00:00|2599-12-31T23:59:59
N4|M57A|41.3372|-77.128|319.0|Sunshine Farm, Cogan Station, PA, USA|2015-05-18T00:00:00|2599-12-31T23:59:59
N4|M63A|41.4038|-72.0464|44.0|Gales Ferry, CT, USA|2015-06-05T00:00:00|2599-12-31T23:59:59
N4|MDND|47.8481|-99.6029|479.0|Maddock, ND, USA|2018-08-15T00:00:00|2599-12-31T23:59:59
N4|MSTX|33.9696|-102.7724|1167.0|Muleshoe, TX, USA|2018-08-15T00:00:00|2599-12-31T23:59:59
N4|N38B|40.7931|-93.235|322.0|Corydon, IA, USA|2014-03-11T00:00:00|2599-12-31T23:59:59
N4|N41A|40.7077|-90.8552|226.0|Harden Midland Farm, Stronghurst, IL, USA|2013-11-08T00:00:00|2599-12-31T23:59:59
N4|N47A|40.8801|-85.694199|252.0|Urbana, IN, USA|2014-05-12T00:00:00|2599-12-31T23:59:59
N4|N49A|40.922001|-84.182503|225.0|Columbus Grove, OH, USA|2014-05-11T00:00:00|2599-12-31T23:59:59
N4|N51A|40.918301|-82.374802|343.0|Ashland, OH, USA|2014-11-03T00:00:00|2599-12-31T23:59:59
N4|N53A|40.8065|-80.8377|360.0|Lisbon, OH, USA|2014-10-24T00:00:00|2599-12-31T23:59:59
N4|N58A|40.8396|-76.7158|200.0|Sunbury, PA, USA|2015-05-14T00:00:00|2599-12-31T23:59:59
N4|N62A|40.9313|-73.4677|34.0|Caumsett State Park, Huntington, NY, USA|2015-06-05T00:00:00|2599-12-31T23:59:59
N4|O20A|40.1348|-108.2416|1915.0|White River City, CO, USA|2018-08-15T00:00:00|2599-12-31T23:59:59
N4|O48B|40.2571|-85.1553|300.0|Farmland, IN, USA|2019-02-12T00:00:00|2599-12-31T23:59:59
N4|O49A|40.188|-84.3353|292.0|Covington, OH, USA|2014-05-08T00:00:00|2599-12-31T23:59:59
N4|O52A|40.1158|-81.8361|331.0|Adamsville, OH, USA|2014-12-01T00:00:00|2599-12-31T23:59:59
N4|O54A|40.1821|-80.3778|357.0|Avella, PA, USA|2014-11-24T00:00:00|2599-12-31T23:59:59
N4|P38B|39.6248|-93.5321|248.0|Dawn, MO, USA|2014-03-09T00:00:00|2599-12-31T23:59:59
N4|P40B|39.5298|-92.0483|320.0|Paris, MO, USA|2014-03-14T00:00:00|2599-12-31T23:59:59
N4|P43A|39.6409|-89.5213|176.0|Skaggs, Pawnee, IL, USA|2013-11-08T00:00:00|2599-12-31T23:59:59
N4|P46A|39.6178|-87.2067|194.0|Rosedale, IN, USA|2013-12-20T00:00:00|2599-12-31T23:59:59
N4|P48A|39.4605|-85.4258|300.0|Milroy, IN, USA|2014-05-02T00:00:00|2599-12-31T23:59:59
N4|P53A|39.4868|-81.3896|270.0|Whipple, OH, USA|2014-11-24T00:00:00|2599-12-31T23:59:59
N4|P57A|39.4835|-78.0126|191.0|Homestead Farm, Martinsburg, WV, USA|2015-05-05T00:00:00|2599-12-31T23:59:59
N4|P61A|39.6734|-74.7919|22.0|Hammonton, NJ, USA|2015-02-12T00:00:00|2599-12-31T23:59:59
N4|Q44B|38.9033|-89.0169|168.0|Vandalia, IL, USA|2014-02-16T00:00:00|2599-12-31T23:59:59
N4|Q51A|39.026|-83.3456|362.0|Peebles, OH, USA|2014-05-21T00:00:00|2599-12-31T23:59:59
N4|Q52A|38.9622|-82.2669|228.0|Bidwell, OH, USA|2014-12-01T00:00:00|2599-12-31T23:59:59
N4|Q54A|38.9836|-80.8338|254.0|Coxs Mills, WV, USA|2014-12-08T00:00:00|2599-12-31T23:59:59
N4|Q56A|39.0401|-79.1871|430.0|Snyder Ridge, Maysville, WV, USA|2015-05-05T00:00:00|2599-12-31T23:59:59
N4|R32B|38.4225|-98.7111|568.0|Long Quarter, Great Bend, KS, USA|2014-02-24T00:00:00|2599-12-31T23:59:59
N4|R40B|38.2909|-92.2684|218.0|Maddies Station, St. Elizabeth, MO, USA|2014-03-10T00:00:00|2599-12-31T23:59:59
N4|R49A|38.2916|-85.1714|251.0|Shelbyville, KY, USA|2014-04-23T00:00:00|2599-12-31T23:59:59
N4|R50A|38.2816|-84.3274|255.0|Paris, KY, USA|2014-04-23T00:00:00|2599-12-31T23:59:59
N4|R55A|38.2825|-80.1195|833.0|Marlinton, WV, USA|2015-05-01T00:00:00|2599-12-31T23:59:59
N4|R58B|37.9636|-77.8787|116.0|Mineral, VA, USA|2015-04-28T00:00:00|2599-12-31T23:59:59
N4|R61A|38.3303|-75.339|76.0|Willards, MD, USA|2015-02-09T00:00:00|2599-12-31T23:59:59
N4|S39B|37.6909|-93.3226|340.0|Bolivar, MO, USA|2014-02-22T00:00:00|2599-12-31T23:59:59
N4|S44A|37.6936|-89.2551|155.0|Carbondale, IL, USA|2013-12-16T00:00:00|2599-12-31T23:59:59
N4|S51A|37.6392|-83.5935|286.0|Beattyville, KY, USA|2014-04-21T00:00:00|2599-12-31T23:59:59
N4|S54A|37.7997|-81.3114|636.0|Dingess, Beckley, WV, USA|2015-04-28T00:00:00|2599-12-31T23:59:59
N4|S57A|37.7605|-78.9536|264.0|Dark Hallow, Roseland, VA, USA|2015-04-28T00:00:00|2599-12-31T23:59:59
N4|S61A|37.6804|-75.6727|58.0|Accomac, VA, USA|2015-02-09T00:00:00|2599-12-31T23:59:59
N4|SFIN|40.379002|-87.096703|165.0|Lafayette, IN, USA|2018-08-15T00:00:00|2599-12-31T23:59:59
N4|SPMN|45.2246|-92.8037|311.0|Marine on St. Croix, MN, USA|2018-08-15T00:00:00|2599-12-31T23:59:59
N4|SUSD|44.4429|-98.9556|520.0|Miller, SD, USA|2018-08-15T00:00:00|2599-12-31T23:59:59
N4|T35B|36.9162|-96.5119|413.0|Sooner Cattle Company, Foraker, OK, USA|2014-02-19T00:00:00|2599-12-31T23:59:59
N4|T42B|37.0301|-91.0927|165.0|T42B|2014-02-13T00:00:00|2599-12-31T23:59:59
N4|T45B|37.0159|-88.6459|136.0|Paducah, KY, USA|2014-02-11T00:00:00|2599-12-31T23:59:59
N4|T47A|36.9881|-87.1055|217.0|Sharon Grove, KY, USA|2013-12-16T00:00:00|2599-12-31T23:59:59
N4|T50A|37.0204|-84.8384|302.0|Nancy, KY, USA|2014-04-17T00:00:00|2599-12-31T23:59:59
N4|T57A|36.9983|-79.2538|230.0|Hurt, VA, USA|2015-03-18T00:00:00|2599-12-31T23:59:59
N4|T59A|36.9716|-77.5541|63.0|Double 'B' Farms, VA, USA|2015-02-04T00:00:00|2599-12-31T23:59:59
N4|TIGA|31.4389|-83.5898|109.0|Tifton, GA, USA|2018-08-15T00:00:00|2599-12-31T23:59:59
N4|TUL3|35.9105|-95.7918|265.0|Leonard, OK, USA|2018-08-15T00:00:00|2599-12-31T23:59:59
N4|U38B|36.4394|-94.3857|389.0|Mount Pleasant Farm, Gravette, AR, USA|2014-02-15T00:00:00|2599-12-31T23:59:59
N4|U49A|36.512901|-85.779602|234.0|Red Boiling Springs, TN, USA|2014-02-24T00:00:00|2599-12-31T23:59:59
N4|U54A|36.5209|-81.8204|837.0|Nelson's Funny Farm, Mountain City, TN, USA|2015-04-13T00:00:00|2599-12-31T23:59:59
N4|U56A|36.3472|-80.3829|363.0|King, NC, USA|2015-04-13T00:00:00|2599-12-31T23:59:59
N4|V48A|35.74|-86.8219|278.0|Smith Brothers Farm, Spring Hill, TN, USA|2013-12-16T00:00:00|2599-12-31T23:59:59
N4|V53A|35.6694|-82.8124|681.0|Sandy Mush, NC, USA|2014-03-14T00:00:00|2599-12-31T23:59:59
N4|V55A|35.8518|-81.2149|313.0|Morning Dew, Taylorsville, NC, USA|2014-12-19T00:00:00|2599-12-31T23:59:59
N4|V58A|35.794|-79.115|127.0|WIndy Hill, Pittsboro, NC, USA|2015-02-05T00:00:00|2599-12-31T23:59:59
N4|V61A|35.7912|-76.5776|4.0|Roper, NC, USA|2015-02-02T00:00:00|2599-12-31T23:59:59
N4|W50A|35.2002|-85.3119|587.0|Signal Mountain, TN, USA|2014-03-09T00:00:00|2599-12-31T23:59:59
N4|W52A|35.0935|-83.9277|519.0|Murphy, NC, USA|2014-03-11T00:00:00|2599-12-31T23:59:59
N4|W59A|35.1673|-78.443|60.0|Clinton, NC, USA|2017-04-20T00:00:00|2599-12-31T23:59:59
N4|WHTX|31.9913|-97.4561|190.0|Lake Whitney, Meridian, TX, USA|2018-08-15T00:00:00|2599-12-31T23:59:59
N4|X48A|34.4517|-87.0452|180.0|Hartselle, AL, USA|2013-12-16T00:00:00|2599-12-31T23:59:59
N4|X51A|34.5658|-84.8574|214.0|Calhoun, GA, USA|2014-04-12T00:00:00|2599-12-31T23:59:59
N4|X58A|34.5548|-79.3388|45.0|Rowland, NC, USA|2015-01-26T00:00:00|2599-12-31T23:59:59
N4|Y45B|33.8656|-89.5431|101.0|Coffeeville, MS, USA|2014-02-25T00:00:00|2599-12-31T23:59:59
N4|Y49A|33.8577|-86.4119|362.0|Blount Mountain, AL, USA|2013-12-16T00:00:00|2599-12-31T23:59:59
N4|Y52A|33.864|-84.0626|286.0|Lilburn, GA, USA|2014-05-25T00:00:00|2599-12-31T23:59:59
N4|Y57A|34.017|-80.3915|56.0|Sumter, SC, USA|2015-01-21T00:00:00|2599-12-31T23:59:59
N4|Y58A|33.9057|-79.6665|19.0|Scranton, SC, USA|2015-01-25T00:00:00|2599-12-31T23:59:59
N4|Y60A|34.0046|-78.2163|7.0|Bolivia, NC, USA|2015-01-30T00:00:00|2599-12-31T23:59:59
N4|Z35B|33.3309|-97.253|234.0|Perchaven, Sanger, TX, USA|2014-02-10T00:00:00|2599-12-31T23:59:59
N4|Z38B|33.2599|-94.9852|115.0|Mount Pleasant, TX, USA|2014-02-12T00:00:00|2599-12-31T23:59:59
N4|Z47B|33.1989|-88.0696|64.0|Carrollton, AL, USA|2014-02-28T00:00:00|2599-12-31T23:59:59
NA|SABA|17.620501|-63.242599|216.0|Netherlands Antilles Seismic Network|2006-10-30T00:00:00|2599-12-31T23:59:59
NA|SEUS|17.4928|-62.9814|46.0|St Eustatius, Netherlands Antilles Seismic Network|2006-10-29T00:00:00|2599-12-31T23:59:59
NA|SMRT|18.049999|-63.0746|260.0|St Maarten, Netherlands Antilles Seismic Network|2006-10-27T00:00:00|2599-12-31T23:59:59
NE|BCX|42.335|-71.1705|60.0|Chestnut Hill, MA, USA|1995-06-29T00:00:00|2599-12-31T23:59:59
NE|EMMW|44.7075|-67.4573|35.0|Machias, ME, USA|2000-12-03T00:00:00|2599-12-31T23:59:59
NE|HNH|43.7051|-72.2865|180.0|Hanover, NH, USA|1995-08-31T00:00:00|2599-12-31T23:59:59
NE|TRY|42.7313|-73.6664|89.0|Troy, NY, USA|1995-10-06T00:00:00|2599-12-31T23:59:59
NE|VT1|44.3206|-72.7513|149.0|Waterbury, VT, USA|1997-09-07T00:00:00|2599-12-31T23:59:59
NE|WES|42.3848|-71.3218|60.0|Weston Observatory, Weston, MA, USA|1994-11-02T00:00:00|2599-12-31T23:59:59
NE|WSPT|41.1712|-73.3278|91.0|Westport, CT, USA|2008-06-17T00:00:00|2599-12-31T23:59:59
NE|WVL|44.5646|-69.6617|50.0|Waterville, ME, USA|1998-06-30T00:00:00|2599-12-31T23:59:59
NL|HGN|50.764|5.9317|135.0|HEIMANSGROEVE, NETHERLANDS|1993-01-01T00:00:00|2599-12-31T23:59:59
NM|BLO|39.1719|-86.5222|246.0|Bloomington, IN|1998-03-27T00:00:00|2599-12-31T23:59:59
NM|CGM3|37.29775|-89.6582|148.0|Cape Girardeau, MO|2011-07-01T00:00:00|2599-12-31T23:59:59
NM|CLTN|36.09115|-86.3315|208.0|Cedars of Lebanon,TN|2013-01-25T00:00:00|2599-12-31T23:59:59
NM|FFIL|38.381345|-88.389648|128.1|Fairfield, IL|2014-01-04T00:00:00|2599-12-31T23:59:59
NM|FVM|37.9812|-90.4273|137.0|French Village, MO|2003-09-17T00:00:00|2599-12-31T23:59:59
NM|GLAT|36.269|-89.288|120.0|Glass,TN|1999-07-02T00:00:00|2599-12-31T23:59:59
NM|GNAR|35.965|-90.018|71.0|Gosnell,AR|2000-02-01T00:00:00|2599-12-31T23:59:59
NM|HALT|35.911|-89.34|85.0|Halls,TN|1999-07-02T00:00:00|2599-12-31T23:59:59
NM|HBAR|35.555|-90.657|74.0|Harrisburg,AR(CERI)|1999-11-05T00:00:00|2599-12-31T23:59:59
NM|HDAR2|35.15383|-90.09056|100.0|I40 Weigh Station,West Memphis,AR|2012-08-09T00:00:00|2599-12-31T23:59:59
NM|HDBT|35.153|-90.058|66.0|Mud Island,Memphis,TN(CERI)|2001-08-21T00:00:00|2599-12-31T23:59:59
NM|HENM|36.716|-89.472|88.0|Henderson Mound,MO|1999-05-12T00:00:00|2599-12-31T23:59:59
NM|HICK|36.541|-89.229|141.0|Hickman,KY|1999-05-27T00:00:00|2599-12-31T23:59:59
NM|LNXT|36.101|-89.491|144.0|Lenox,TN|1999-07-02T00:00:00|2599-12-31T23:59:59
NM|LPAR|35.602|-90.3|67.0|Lepanto,AR|1999-11-05T00:00:00|2599-12-31T23:59:59
NM|MGMO|37.154|-92.2687|453.0|Mountain Grove, MO|2008-07-28T00:00:00|2599-12-31T23:59:59
NM|MPH|35.123|-89.932|93.0|Memphis, TN|1998-05-12T00:00:00|2599-12-31T23:59:59
NM|OLIL|38.7338|-88.0991|150.0|Olney Central College  Olney, IL|2005-03-04T00:00:00|2599-12-31T23:59:59
NM|PARM|36.664|-89.752|85.0|Stahl Farm,MO|1999-05-25T00:00:00|2599-12-31T23:59:59
NM|PBMO|36.7785|-90.4297|143.9|Three Rivers Community College, Poplar Bluff, MO|2007-06-22T00:00:00|2599-12-31T23:59:59
NM|PEBM|36.113|-89.862|76.0|Pemiscot Bayou,MO|1999-07-02T00:00:00|2599-12-31T23:59:59
NM|PENM|36.45|-89.628|85.0|Penman,Portageville,MO|1999-07-02T00:00:00|2599-12-31T23:59:59
NM|PLAL|34.9824|-88.0755|165.0|Pickwick Lake, AR|1998-03-01T00:00:00|2599-12-31T23:59:59
NM|PVMO|36.4137|-89.6997|98.3|UM Delta Research Portageville, MO|2002-08-17T00:00:00|2599-12-31T23:59:59
NM|PWLA|34.98|-88.064|204.0|Pickwick Lake,AL|1980-05-14T00:00:00|2599-12-31T23:59:59
NM|SIUC|37.7148|-89.2174|120.0|Carbondale, IL|1999-02-25T00:00:00|2599-12-31T23:59:59
NM|SLM|38.636101|-90.236397|186.0|St. Louis, MO|1997-02-06T00:00:00|2599-12-31T23:59:59
NM|UALR|34.7751|-92.3429|138.0|University of Arkansas, Little Rock|1999-06-22T00:00:00|2599-12-31T23:59:59
NM|USIN|37.965|-87.666|170.7|Univ. of Southern Indiana, Evansville, IN|2002-10-23T00:00:00|2599-12-31T23:59:59
NM|UTMT|36.3497|-88.8636|110.0|Martin, TN|2009-07-23T00:00:00|2599-12-31T23:59:59
NM|X502|35.4903|-92.3868|344.0|Temporary Arkansas|2014-03-28T00:00:00|2599-12-31T23:59:59
NN|BEK|39.8666|-120.359596|1743.0|Beckworth, California w84|1996-10-02T00:00:00|2599-12-31T23:59:59
NN|BFC|38.8938|-119.6094|1744.0|Buffalo Canyon, Nevada  w84gm|1978-02-28T00:00:00|2599-12-31T23:59:59
NN|CMK6|39.3102|-118.1193|1332.0|Chalk Mountain, Churchill County, NV, USA|2015-11-20T00:00:00|2599-12-31T23:59:59
NN|CTC|39.207699|-120.125999|2147.0|N. Tahoe City Carnelian Bay|2014-08-08T00:00:00|2599-12-31T23:59:59
NN|GMN|37.3003|-117.2607|2168.0|Gold Mountain, NV, USA|1979-07-13T00:00:00|2599-12-31T23:59:59
NN|GWY|36.186001|-116.6698|1538.0|Greenwater Valley, CA. (GPS 12/06/2000) w84gm|1988-02-10T00:00:00|2599-12-31T23:59:59
NN|HYDE|36.1609|-115.1931|657.0|Hyde High School, LLNL/ANSS BB+SM w84|2003-05-16T00:00:00|2599-12-31T23:59:59
NN|KVN|39.0484|-118.1012|1829.0|Kaiserville, Nevada w84gm|1971-09-20T00:00:00|2599-12-31T23:59:59
NN|LCH|37.232899|-117.645897|1414.0|Last Chance Range, CA. (GPS 01/04/2001) w84|1979-07-13T00:00:00|2599-12-31T23:59:59
NN|LHV|38.2513|-118.5049|2353.0|Little Huntoon Valley, Nevada w84gm|1980-09-16T00:00:00|2599-12-31T23:59:59
NN|MCA06|38.0089|-117.8818|1462.0|Monte Cristo ASL 06|2020-05-18T00:00:00|2599-12-31T23:59:59
NN|MCM05|38.1572|-117.8721|1591.0|Monte Cristo Menlo 05|2020-05-23T00:00:00|2599-12-31T23:59:59
NN|MCM07|38.2274|-117.7463|1716.0|Monte Cristo Menlo 07|2020-05-22T00:00:00|2599-12-31T23:59:59
NN|MCM08|38.1599|-118.0522|1669.0|Monte Cristo Menlo 08|2020-05-22T00:00:00|2599-12-31T23:59:59
NN|MPK|39.2928|-120.0364|2599.0|Martis Peak, California w84gm|1973-04-01T00:00:00|2599-12-31T23:59:59
NN|MZPB|37.7008|-117.3838|2371.0|Montezuma,NV,USA analog reactivation|2016-04-14T00:00:00|2599-12-31T23:59:59
NN|PAH|39.7106|-119.3854|1520.0|Pah Rah Range, Nevada w84gm|1996-08-17T00:00:00|2599-12-31T23:59:59
NN|PIO|37.947201|-114.491402|1887.0|Pioche, NV, USA - NN reactivation|2016-04-13T00:00:00|2599-12-31T23:59:59
NN|PNT|39.0891|-119.5997|2076.0|Pine Nut, Nevada w84|1994-10-15T00:00:00|2599-12-31T23:59:59
NN|PYM2|40.1701|-119.7321|1241.0|Pyramid Lake 2|2010-07-20T00:00:00|2599-12-31T23:59:59
NN|Q09A|38.834|-117.181602|1703.5|Carvers, NV, USA - NN reactivation|2015-09-22T00:00:00|2599-12-31T23:59:59
NN|QSM|35.965|-116.869102|385.0|Queen of Sheba Mine, CA. (GPS 01/17/2001)   w84gm|1978-11-28T00:00:00|2599-12-31T23:59:59
NN|REDF|39.389999|-119.764702|1466.0|Redfield Campus, S. Reno, Nevada|2013-05-24T00:00:00|2599-12-31T23:59:59
NN|S11A|37.644402|-115.7472|1456.0|Rachel, NV, USA - NN reactivation|2015-08-27T00:00:00|2599-12-31T23:59:59
NN|TBRD|39.173199|-119.930901|1952.0|Thunderbird Lodge, Lake Tahoe, NV|2017-10-20T00:00:00|2599-12-31T23:59:59
NN|UNVG|36.1106|-115.1446|619.0|UNLV greenhouse area, Las Vegas Valley|2012-06-14T00:00:00|2599-12-31T23:59:59
NN|VCN|39.295601|-119.650299|1928.0|Virginia City, Nevada gps|2011-08-03T00:00:00|2599-12-31T23:59:59
NN|WAK|38.504299|-119.438202|1890.0|Walker, California w84|1996-10-02T00:00:00|2599-12-31T23:59:59
NN|WDEM|39.5841|-119.8099|1572.0|Washoe County DEM, Nevada|2013-08-28T00:00:00|2599-12-31T23:59:59
NN|WLDB|36.792702|-116.626602|955.0|Wildcat Mountain, NV, USA analog reactivation|2016-04-20T00:00:00|2599-12-31T23:59:59
NN|YER|38.9852|-119.2406|1857.0|Yerington, Nevada w84gm|1998-09-04T00:00:00|2599-12-31T23:59:59
NN|ZPR|39.0131|-119.937599|2001.0|Zephyr Cove, Lake Tahoe, Nevada|2017-07-10T00:00:00|2599-12-31T23:59:59
NU|ACON|11.968|-85.174004|862.0|Acoyapa, Nicaragua|2008-01-01T00:00:00|2599-12-31T23:59:59
NU|BILN|14.0488|-83.374641|30.0|Z|2018-11-27T21:50:00|2599-12-31T23:59:59
NU|BLUN|11.993639|-83.771942|25.0|Bluefields, Nicaragua|2008-01-01T00:00:00|2599-12-31T23:59:59
NU|CARN|11.187226|-85.522179|64.0|Z|2018-10-12T16:50:00|2599-12-31T23:59:59
NU|CRIN|12.696586|-87.020889|879.0|volcan San Cristobal, Nicaragua|2008-01-01T00:00:00|2599-12-31T23:59:59
NU|HERN|12.6093|-86.831001|758.0|Volcan Telica, Nicaragua|2008-01-01T00:00:00|2599-12-31T23:59:59
NU|MASN|11.988917|-86.157631|150.0|Volcan Masaya, Nicaragua|2008-01-01T00:00:00|2599-12-31T23:59:59
NU|MGAN|12.148928|-86.248314|70.0|Managua, Nicaragua|2008-01-01T00:00:00|2599-12-31T23:59:59
NU|NANN|11.939032|-86.121277|327.0|Nandasmo, Nicaragua|2014-02-09T00:00:00|2599-12-31T23:59:59
NU|POTN|12.999861|-87.506287|40.0|POTOSI, COSIGUINA|2018-11-13T21:32:00|2599-12-31T23:59:59
NU|RIBN|12.94153|-85.232002|288.0|Rio Blanco, Nicaragua|2019-01-14T21:45:00|2599-12-31T23:59:59
NU|SIUN|13.71616|-84.773499|178.0|Universidad URACAN, Siuna, Nicaragua|2018-12-20T21:52:00|2599-12-31T23:59:59
NV|CQS64|48.6999|-126.8721|-1323.0|Clayoquot Slope, North (ODP 1364A)|2016-07-01T00:00:00|2599-12-31T23:59:59
NV|ENWF|47.959766|-129.124479|-2361.0|Endeavour West Flank|2016-06-21T00:00:00|2599-12-31T23:59:59
NV|KEMO|47.924102|-129.1082|-2270.0|Mothra Field|2016-06-18T00:00:00|2599-12-31T23:59:59
NV|NC89|48.670537|-126.848767|-1258.0|Clayoquot Slope, Bullseye (ODP 1089)|2009-09-17T00:00:00|2599-12-31T23:59:59
NV|NCBC|48.4275|-126.1752|-398.0|Barkley Canyon|2009-09-07T00:00:00|2599-12-31T23:59:59
NW|L44A|42.1782|-87.9119|202.0|Ryerson Woods, Lake Cnty Forest Preserve, IL, USA|2019-03-15T01:09:00|2599-12-31T23:59:59
NX|WTX28|32.878676|-103.376924|1173.0|Z|2020-11-05T15:00:00|2599-12-31T23:59:59
NX|WTX29|32.741397|-103.556767|1207.0|Z|2020-11-05T15:40:00|2599-12-31T23:59:59
NY|TGTN|61.5267|-128.27268|0.0|Tungsten|2013-07-01T00:00:00|2599-12-31T23:59:59
NY|WGLY|63.22815|-123.45841|0.0|Wrigley, NWT|2013-07-01T00:00:00|2599-12-31T23:59:59
NY|WTLY|60.11326|-128.79605|0.0|Watson Lake|2013-07-01T00:00:00|2599-12-31T23:59:59
NZ|BFZ|-40.679647|176.246245|283.0|Birch Farm|1996-04-03T00:00:00|2599-12-31T23:59:59
NZ|BKZ|-39.165666|176.492544|706.0|Black Stump Farm|2004-02-11T00:00:00|2599-12-31T23:59:59
NZ|HIZ|-38.512929|174.855686|237.0|Hauiti|2004-02-03T00:00:00|2599-12-31T23:59:59
NZ|KHZ|-42.41598|173.53897|64.0|Kahutara|1988-12-08T00:00:00|2599-12-31T23:59:59
NZ|ODZ|-45.043982|170.644622|274.0|Otahua Downs|1990-08-31T00:00:00|2599-12-31T23:59:59
NZ|QRZ|-40.825522|172.529148|263.0|Quartz Range|1990-04-26T00:00:00|2599-12-31T23:59:59
NZ|RPZ|-43.714608|171.053865|453.0|Rata Peaks|2001-06-06T00:00:00|2599-12-31T23:59:59
NZ|URZ|-38.259249|177.110894|95.0|Urewera|1990-10-09T00:00:00|2599-12-31T23:59:59
O2|ALVA|36.8696|-98.7931|454.0|Alva, Oklahoma, USA|2019-10-31T15:35:30|2022-12-31T23:59:59
O2|ARC2|35.7431|-97.2725|311.0|Arcadia, Oklahoma, USA|2019-11-19T18:49:00|2022-12-31T23:59:59
O2|CALT|35.6719|-98.2205|430.0|Calumet, Oklahoma, USA|2019-10-01T17:30:33|2022-12-31T23:59:59
O2|CHAN|35.652956|-96.785491|266.0|Chandler, Oklahoma, USA|2018-03-01T00:00:00|2021-12-31T23:59:59
O2|CRES|36.037118|-97.534468|311.0|Cresent, Oklahoma, USA|2018-03-14T00:00:00|2021-12-31T23:59:59
O2|DOVR|35.954333|-97.988182|337.0|Dover, Oklahoma, USA|2018-02-26T19:20:00|2021-12-31T23:59:59
O2|DRIP|35.6127|-96.065|243.0|Dripping spring state park, Oklahoma, USA|2020-02-20T17:57:29|2022-12-31T23:59:59
O2|DRUM|35.9192|-96.6054|296.0|Drumwright, Oklahoma, USA|2018-03-06T00:00:00|2021-12-31T23:59:59
O2|DUST|35.2803|-96.1087|268.0|Dustin, Oklahoma, USA|2019-12-04T18:28:00|2022-12-31T23:59:59
O2|ERNS|35.4243|-98.0293|418.0|El Reno, Oklahoma, USA|2019-10-01T15:05:19|2022-12-31T23:59:59
O2|FREE|36.9301|-99.2706|563.0|Freedom, Oklahoma, USA|2019-11-12T21:23:35|2022-12-31T23:59:59
O2|FW01|36.494607|-98.940745|431.0|Cuddy Creek, Oklahoma, USA|2019-02-12T17:00:00|2022-12-31T23:59:59
O2|FW02|36.378467|-98.729327|434.0|Waynoka, Oklahoma, USA|2019-02-12T18:00:00|2022-12-31T23:59:59
O2|FW03|36.52687|-99.17294|628.0|Mooreland, Oklahoma, USA|2019-01-25T15:47:00|2022-12-31T23:59:59
O2|FW04|36.59611|-98.665|448.0|Hopeton, Oklahoma, USA|2019-02-14T21:10:00|2022-12-31T23:59:59
O2|FW05|36.470407|-98.605392|444.0|Cleo Springs, Oklahoma, USA|2019-03-05T22:50:00|2022-12-31T23:59:59
O2|FW06|36.513783|-98.499062|420.0|Aline, Oklahoma, USA|2019-02-12T18:20:00|2022-12-31T23:59:59
O2|FW07|36.44981|-98.801017|404.0|Waynoka, Oklahoma, USA|2019-02-12T19:40:00|2022-12-31T23:59:59
O2|FW09|36.550787|-99.040665|517.0|Waynoka, Oklahoma, USA|2019-02-12T21:40:00|2022-12-31T23:59:59
O2|FW10|36.50599|-98.718477|457.0|Waynoka, Oklahoma, USA|2019-02-13T18:00:00|2022-12-31T23:59:59
O2|GORE|36.785632|-97.947062|348.0|Near Medford, Oklahoma, USA|2018-09-26T20:38:19|2022-12-31T23:59:59
O2|KS01|37.15342|-97.75897|360.0|Argonia South Station, Kansas|2019-08-01T15:45:00|2022-12-31T23:59:59
O2|KS08|37.22672|-97.970947|375.0|Anthony NE Station, Kansas|2019-07-31T21:53:00|2022-12-31T23:59:59
O2|KS13|37.012881|-97.477803|340.0|South Haven SW Station, Kansas|2019-07-31T22:00:00|2022-12-31T23:59:59
O2|MRSH|36.13231|-97.69548|309.0|Marshall, Oklahoma, USA|2018-03-01T00:00:00|2021-12-31T23:59:59
O2|PERK|35.926079|-97.129544|288.0|Perkins, Oklahoma, USA|2018-03-12T00:00:00|2021-12-31T23:59:59
O2|PERY|36.26001|-97.23505|209.0|Perry, Oklahoma, USA|2018-03-05T00:00:00|2021-12-31T23:59:59
O2|PW01|36.401813|-96.929228|322.0|Pawnee, Oklahoma|2019-09-19T18:16:07|2022-12-31T23:59:59
O2|PW02|36.418833|-96.858167|314.0|Pawnee, Oklahoma, USA|2019-09-16T21:37:00|2022-12-31T23:59:59
O2|PW05|36.48506|-96.964153|289.0|Fairfax, Oklahoma, USA|2019-05-17T15:53:59|2022-12-31T23:59:59
O2|PW06|36.42073|-96.972008|303.0|Pawnee, Oklahoma, USA|2019-09-16T17:17:00|2022-12-31T23:59:59
O2|PW07|36.504198|-96.765075|282.0|Ralston, Oklahoma, USA|2019-06-12T21:31:59|2022-12-31T23:59:59
O2|PW09|36.448013|-96.817045|291.0|Ralston, Oklahoma|2019-05-16T21:40:59|2022-12-31T23:59:59
O2|PW10|36.365555|-96.831053|297.0|Pawnee, Oklahoma|2019-10-08T18:00:00|2022-12-31T23:59:59
O2|PW13|36.328488|-96.817845|290.0|Pawnee, Oklahoma, USA|2019-05-07T19:35:00|2022-12-31T23:59:59
O2|PW15|36.468635|-97.013717|270.0|Ralston, Oklahoma, USA|2019-05-17T19:53:59|2022-12-31T23:59:59
O2|PW17|36.245382|-96.700188|324.0|Maramec, Oklahoma,USA|2019-10-02T21:27:43|2022-12-31T23:59:59
O2|PW18|36.278988|-97.044208|299.0|Morrison, Oklahoma, USA|2019-05-16T18:26:59|2022-12-31T23:59:59
O2|PW19|36.56854|-97.035507|301.0|Marland, Oklahoma, USA|2019-05-17T18:37:59|2022-12-31T23:59:59
O2|PW30|36.4169|-96.8217|314.0|Pawnee, Oklahoma, USA|2019-10-03T18:54:25|2022-12-31T23:59:59
O2|QUIN|35.2021|-95.4692|227.0|Quinton, Oklahoma, USA|2019-10-22T19:57:07|2022-12-31T23:59:59
O2|RNSP|35.9334|-98.4254|453.0|Roman Nose State Park, Oklahoma, USA|2019-10-17T00:00:00|2022-12-31T23:59:59
O2|ROSS|36.9472|-99.8667|607.0|Rosston, Oklahoma, USA|2019-11-01T16:09:27|2022-12-31T23:59:59
O2|SC02|34.7977|-97.389|310.0|Maysville, Garvin & McClain Counties, OK, USA|2020-06-18T20:08:59|2022-12-31T23:59:59
O2|SC03|34.940182|-97.848978|349.0|Ninnekah, Oklahoma, USA|2019-03-01T00:00:00|2022-12-31T23:59:59
O2|SC04|34.36356|-97.473422|300.0|Fox, Oklahoma, USA|2019-03-07T23:00:00|2022-12-31T23:59:59
O2|SC06|35.073193|-97.521477|342.0|Washington, Oklahoma, USA|2019-03-07T17:45:00|2022-12-31T23:59:59
O2|SC07|34.933695|-98.214027|349.0|Cyril, Oklahoma, USA|2019-03-01T00:00:00|2022-12-31T23:59:59
O2|SC08|34.687273|-96.393077|200.0|Tupelo, Oklahoma, USA|2020-11-11T22:02:00|2022-12-31T23:59:59
O2|SC09|34.5451|-97.3657|296.0|Elmore City, Oklahoma, USA|2019-03-07T00:00:00|2022-12-31T23:59:59
O2|SC10|35.422563|-98.271427|502.0|Scott, Oklahoma, USA|2019-01-29T17:40:00|2022-12-31T23:59:59
O2|SC11|35.183265|-98.740663|414.0|Mountain View, Oklahoma, USA|2019-01-25T00:00:00|2022-12-31T23:59:59
O2|SC12|34.921667|-99.3547|472.0|Granite, Oklahoma, USA|2020-11-02T21:42:00|2022-12-31T23:59:59
O2|SC13|34.727653|-96.945632|363.0|Stratford, Oklahoma, USA|2019-01-25T00:00:00|2022-12-31T23:59:59
O2|SC14|34.452052|-98.243927|339.0|Walters, Oklahoma, USA|2019-01-25T00:00:00|2022-12-31T23:59:59
O2|SC15|35.606645|-99.50059|550.0|Hammon, Oklahoma, USA|2019-01-31T22:00:00|2022-12-31T23:59:59
O2|SC16|35.974933|-98.815308|500.0|Oakwood, Oklahoma, USA|2019-01-28T19:48:00|2022-12-31T23:59:59
O2|SC18|36.502615|-97.554242|1051.0|Garber, Oklahoma, USA|2018-07-26T17:11:46|2021-12-31T23:59:59
O2|SC19|36.220151|-97.843067|1116.0|Bison, Oklahoma, USA|2018-07-26T21:57:40|2021-12-31T23:59:59
O2|SC20|35.4027|-98.4409|490.0|Lookeba, Oklahoma, USA|2018-08-01T19:15:29|2021-12-31T23:59:59
O2|SHWN|35.342772|-97.022544|320.0|Shawnee, Oklahoma, USA|2018-02-06T17:30:32|2021-12-31T23:59:59
O2|SMNL|35.29415|-96.56492|317.0|Seminole, Oklahoma, USA|2018-04-09T00:00:00|2021-12-31T23:59:59
O2|STIG|35.3406|-95.1056|256.0|Stigler, Oklahoma, USA|2020-02-19T18:47:22|2022-12-31T23:59:59
O2|TUTT|35.238272|-97.755588|407.0|Tuttle, Oklahoma, USA|2018-11-09T20:06:30|2022-12-31T23:59:59
OE|ARSA|47.2505|15.5232|577.0|Arzberg, Steiermark, Austria|1997-06-16T00:00:00|2599-12-31T23:59:59
OE|DAVA|47.286701|9.8803|1602.0|Damuels, Vorarlberg, Austria|1999-06-25T00:00:00|2599-12-31T23:59:59
OE|KBA|47.0784|13.3447|1721.0|Koelnbreinsperre, Kaernten, Austria|1997-11-24T00:00:00|2599-12-31T23:59:59
OH|BCOH|41.5019|-83.7927|198.0|Blue Creek Metro Park|2019-06-14T00:00:00|2599-12-31T23:59:59
OH|BGOH|41.396541|-82.598746|186.0|Bowling Green Firelands Campus|2019-09-25T00:00:00|2599-12-31T23:59:59
OH|BSPO|40.04307|-81.009361|363.0|Barkcamp State Park Ohio|2018-01-05T00:00:00|2599-12-31T23:59:59
OH|CHWO|38.93602|-82.526105|231.0|Cooper Hollow Wildlife Ohio|2018-01-06T00:00:00|2599-12-31T23:59:59
OH|CPOH|38.8401|-83.5776|289.0|Chapparal Prarie|2019-08-26T12:00:00|2599-12-31T23:59:59
OH|KDOH|40.719081|-83.369445|275.0|Killdeer Plains WA|2019-07-09T12:00:00|2599-12-31T23:59:59
OH|KLOH|40.195247|-83.966073|350.5|Kiser Lake State Park Ohio|2016-01-03T00:00:00|2599-12-31T23:59:59
OH|LEBO|41.7859|-81.1801|188.0|Lake Erie Bluffs Ohio|2016-01-08T00:00:00|2599-12-31T23:59:59
OH|M53A|41.439301|-80.675003|334.0|WI Miller and Sons, Farmdale, OH, USA|2018-09-28T00:00:00|2599-12-31T23:59:59
